stop_id,stop_code,stop_name,stop_lat,stop_lon,zone_id,stop_desc,stop_url,location_type,parent_station,stop_timezone,wheelchair_boarding,platform_code
"812624","812624",17th West St & Bruno Ave,38.022601,-121.896068,,"","http://rta.trideltatransit.com/RTT/Public/RoutePositionET.aspx?PlatformTag=114","","","","",""
"812243","812243",17th West St & Bruno Ave,38.022509,-121.896184,,"","http://rta.trideltatransit.com/RTT/Public/RoutePositionET.aspx?PlatformTag=183","","","","",""
"810924","810924",2nd St & Brentwood Blvd,37.936087,-121.696401,,"","http://rta.trideltatransit.com/RTT/Public/RoutePositionET.aspx?PlatformTag=420","","","","",""
"810911","810911",2nd St & Maple St,37.934377,-121.69486,,"","http://rta.trideltatransit.com/RTT/Public/RoutePositionET.aspx?PlatformTag=419","","","","",""
"810768","810768",2nd St & Oak St,37.933732,-121.694028,,"","http://rta.trideltatransit.com/RTT/Public/RoutePositionET.aspx?PlatformTag=418","","","","",""
"817160","817160",Adams Ln (Blue Goose Park),37.949792,-121.707492,,"","http://rta.trideltatransit.com/RTT/Public/RoutePositionET.aspx?PlatformTag=736","","","","",""
"816740","816740",Alhambra Ave & C St,38.004973,-122.130964,,"","http://rta.trideltatransit.com/RTT/Public/RoutePositionET.aspx?PlatformTag=560","","","","",""
"814599","814599",Alhambra Ave & Walnut Ave,37.992447,-122.130639,,"","http://rta.trideltatransit.com/RTT/Public/RoutePositionET.aspx?PlatformTag=561","","","","",""
"813979","813979",Alhambra Ave & Walnut Ave,37.992253,-122.130843,,"","http://rta.trideltatransit.com/RTT/Public/RoutePositionET.aspx?PlatformTag=562","","","","",""
"819209","819209",Alhambra Ave & Wano St,38.005641,-122.131119,,"","http://rta.trideltatransit.com/RTT/Public/RoutePositionET.aspx?PlatformTag=559","","","","",""
"811299","811299",American Ave,37.918801,-121.756103,,"","http://rta.trideltatransit.com/RTT/Public/RoutePositionET.aspx?PlatformTag=633","","","","",""
"811309","811309",American Ave & Balfour Rd,37.922265,-121.752791,,"","http://rta.trideltatransit.com/RTT/Public/RoutePositionET.aspx?PlatformTag=632","","","","",""
"819191","819191",Amtrak,38.018487,-122.139107,,"","http://rta.trideltatransit.com/RTT/Public/RoutePositionET.aspx?PlatformTag=558","","","","",""
"818843","818843",Andrew Ave & 17th West St,38.022506,-121.898368,,"","http://rta.trideltatransit.com/RTT/Public/RoutePositionET.aspx?PlatformTag=182","","","","",""
"812262","812262",Andrew Ave & Power Ave,38.020138,-121.899278,,"","http://rta.trideltatransit.com/RTT/Public/RoutePositionET.aspx?PlatformTag=181","","","","",""
"817754","817754",Antioch BART,37.995572,-121.778137,,"","http://rta.trideltatransit.com/RTT/Public/RoutePositionET.aspx?PlatformTag=722","","","","",""
"814575","814575",Arnold Dr & Starflower Dr,37.994533,-122.078853,,"","http://rta.trideltatransit.com/RTT/Public/RoutePositionET.aspx?PlatformTag=566","","","","",""
"819221","819221",Arnold Dr & Starflower Dr,37.994474,-122.079064,,"","http://rta.trideltatransit.com/RTT/Public/RoutePositionET.aspx?PlatformTag=567","","","","",""
"813436","813436",A St & Belshaw St,38.000477,-121.805868,,"","http://rta.trideltatransit.com/RTT/Public/RoutePositionET.aspx?PlatformTag=69","","","","",""
"811879","811879",A St & Belshaw St,37.999926,-121.806159,,"","http://rta.trideltatransit.com/RTT/Public/RoutePositionET.aspx?PlatformTag=219","","","","",""
"813157","813157",A St & East 13th St,38.008782,-121.805925,,"","http://rta.trideltatransit.com/RTT/Public/RoutePositionET.aspx?PlatformTag=74","","","","",""
"811908","811908",A St & East 13th St,38.008767,-121.806141,,"","http://rta.trideltatransit.com/RTT/Public/RoutePositionET.aspx?PlatformTag=216","","","","",""
"813161","813161",A St & East 16th St,38.006161,-121.805918,,"","http://rta.trideltatransit.com/RTT/Public/RoutePositionET.aspx?PlatformTag=70","","","","",""
"813135","813135",A St & East 19th St,38.00407,-121.805909,,"","http://rta.trideltatransit.com/RTT/Public/RoutePositionET.aspx?PlatformTag=488","","","","",""
"811880","811880",A St & East 19th St,38.004323,-121.806159,,"","http://rta.trideltatransit.com/RTT/Public/RoutePositionET.aspx?PlatformTag=218","","","","",""
"811898","811898",A St & West 16th St,38.006063,-121.806142,,"","http://rta.trideltatransit.com/RTT/Public/RoutePositionET.aspx?PlatformTag=217","","","","",""
"819655","819655",A St & West 3rd St,38.016203,-121.808883,,"","http://rta.trideltatransit.com/RTT/Public/RoutePositionET.aspx?PlatformTag=300","","","","",""
"811912","811912",A St & West 6th St,38.013789,-121.806289,,"","http://rta.trideltatransit.com/RTT/Public/RoutePositionET.aspx?PlatformTag=215","","","","",""
"813119","813119",A St & West 6th St,38.013776,-121.806125,,"","http://rta.trideltatransit.com/RTT/Public/RoutePositionET.aspx?PlatformTag=161","","","","",""
"812682","812682",Atlantic Ave & Atlantic Cir,38.00803,-121.89151,,"","http://rta.trideltatransit.com/RTT/Public/RoutePositionET.aspx?PlatformTag=137","","","","",""
"812761","812761",Atlantic Ave & Atlantic Cir,38.007997,-121.888573,,"","http://rta.trideltatransit.com/RTT/Public/RoutePositionET.aspx?PlatformTag=139","","","","",""
"812774","812774",Atlantic Ave & Atlantic Cir,38.007693,-121.890825,,"","http://rta.trideltatransit.com/RTT/Public/RoutePositionET.aspx?PlatformTag=138","","","","",""
"812994","812994",Auto Center Dr & Century Blvd,38.00634,-121.834819,,"","http://rta.trideltatransit.com/RTT/Public/RoutePositionET.aspx?PlatformTag=150","","","","",""
"816680","816680",Auto Center Dr & Costco Way,38.008888,-121.83217,,"","http://rta.trideltatransit.com/RTT/Public/RoutePositionET.aspx?PlatformTag=274","","","","",""
"812047","812047",Auto Center Dr & Sycamore Dr,38.005931,-121.834741,,"","http://rta.trideltatransit.com/RTT/Public/RoutePositionET.aspx?PlatformTag=203","","","","",""
"815825","815825",Auto Center Dr & West 18th St,38.007665,-121.832915,,"","http://rta.trideltatransit.com/RTT/Public/RoutePositionET.aspx?PlatformTag=273","","","","",""
"812505","812505",Bailey Rd & Canal Rd,38.020849,-121.94203,,"","http://rta.trideltatransit.com/RTT/Public/RoutePositionET.aspx?PlatformTag=165","","","","",""
"812431","812431",Bailey Rd & Canal Rd,38.021004,-121.941729,,"","http://rta.trideltatransit.com/RTT/Public/RoutePositionET.aspx?PlatformTag=166","","","","",""
"812514","812514",Bailey Rd & Mary Ann Ln,38.024632,-121.942064,,"","http://rta.trideltatransit.com/RTT/Public/RoutePositionET.aspx?PlatformTag=167","","","","",""
"814259","814259",Bailey Rd & Maylard St,38.017257,-121.941809,,"","http://rta.trideltatransit.com/RTT/Public/RoutePositionET.aspx?PlatformTag=164","","","","",""
"819266","819266",Bailey Rd & Maylard St,38.016165,-121.942116,,"","http://rta.trideltatransit.com/RTT/Public/RoutePositionET.aspx?PlatformTag=163","","","","",""
"819087","819087",Bailey Rd & Placer Dr,38.024787,-121.941795,,"","http://rta.trideltatransit.com/RTT/Public/RoutePositionET.aspx?PlatformTag=168","","","","",""
"816520","816520",Balclutha Wy & Polaris Dr,38.022912,-121.921902,,"","http://rta.trideltatransit.com/RTT/Public/RoutePositionET.aspx?PlatformTag=540","","","","",""
"819324","819324",Balclutha Wy & Willow Pass Rd,38.026323,-121.923892,,"","http://rta.trideltatransit.com/RTT/Public/RoutePositionET.aspx?PlatformTag=720","","","","",""
"819330","819330",Balclutha Wy & Willow Pass Rd,38.026348,-121.923827,,"","http://rta.trideltatransit.com/RTT/Public/RoutePositionET.aspx?PlatformTag=721","","","","",""
"811281","811281",Balfour Rd & American Ave,37.925162,-121.751831,,"","http://rta.trideltatransit.com/RTT/Public/RoutePositionET.aspx?PlatformTag=644","","","","",""
"811456","811456",Balfour Rd & Claremont Dr,37.925281,-121.714289,,"","http://rta.trideltatransit.com/RTT/Public/RoutePositionET.aspx?PlatformTag=696","","","","",""
"811384","811384",Balfour Rd & Clearview Dr,37.925505,-121.719073,,"","http://rta.trideltatransit.com/RTT/Public/RoutePositionET.aspx?PlatformTag=697","","","","",""
"811268","811268",Balfour Rd & Foothill Dr,37.925167,-121.741244,,"","http://rta.trideltatransit.com/RTT/Public/RoutePositionET.aspx?PlatformTag=646","","","","",""
"811402","811402",Balfour Rd & Griffith Ln,37.925586,-121.705982,,"","http://rta.trideltatransit.com/RTT/Public/RoutePositionET.aspx?PlatformTag=693","","","","",""
"811441","811441",Balfour Rd & Griffith Ln,37.925346,-121.704405,,"","http://rta.trideltatransit.com/RTT/Public/RoutePositionET.aspx?PlatformTag=694","","","","",""
"811101","811101",Balfour Rd & Hudson Dr,37.925669,-121.694665,,"","http://rta.trideltatransit.com/RTT/Public/RoutePositionET.aspx?PlatformTag=666","","","","",""
"811140","811140",Balfour Rd & Hudson Dr,37.925403,-121.694228,,"","http://rta.trideltatransit.com/RTT/Public/RoutePositionET.aspx?PlatformTag=662","","","","",""
"811313","811313",Balfour Rd & John Muir Pky,37.925438,-121.739433,,"","http://rta.trideltatransit.com/RTT/Public/RoutePositionET.aspx?PlatformTag=673","","","","",""
"811460","811460",Balfour Rd & McViking Wy,37.925212,-121.721176,,"","http://rta.trideltatransit.com/RTT/Public/RoutePositionET.aspx?PlatformTag=698","","","","",""
"811397","811397",Balfour Rd & Minnesota Ave,37.925512,-121.714366,,"","http://rta.trideltatransit.com/RTT/Public/RoutePositionET.aspx?PlatformTag=695","","","","",""
"811275","811275",Balfour Rd & Ranchwood Dr,37.925174,-121.745748,,"","http://rta.trideltatransit.com/RTT/Public/RoutePositionET.aspx?PlatformTag=645","","","","",""
"818955","818955",Berrellesa St & Escobar St,38.016616,-122.139478,,"","http://rta.trideltatransit.com/RTT/Public/RoutePositionET.aspx?PlatformTag=735","","","","",""
"817875","817875",Black Diamond & East 8th St,38.029909,-121.88577,,"","http://rta.trideltatransit.com/RTT/Public/RoutePositionET.aspx?PlatformTag=599","","","","",""
"817881","817881",Black Diamond & East 8th St,38.029714,-121.885937,,"","http://rta.trideltatransit.com/RTT/Public/RoutePositionET.aspx?PlatformTag=600","","","","",""
"812735","812735",Bliss Ave & Harbor St,38.014867,-121.886206,,"","http://rta.trideltatransit.com/RTT/Public/RoutePositionET.aspx?PlatformTag=746","","","","",""
"810734","810734",Brentwood Blvd & Applewood Com,37.950374,-121.695938,,"","http://rta.trideltatransit.com/RTT/Public/RoutePositionET.aspx?PlatformTag=425","","","","",""
"810953","810953",Brentwood Blvd & Applewood Com,37.95069,-121.696216,,"","http://rta.trideltatransit.com/RTT/Public/RoutePositionET.aspx?PlatformTag=426","","","","",""
"810781","810781",Brentwood Blvd & Garin Comm Ctr,37.92672,-121.6914,,"","http://rta.trideltatransit.com/RTT/Public/RoutePositionET.aspx?PlatformTag=414","","","","",""
"810969","810969",Brentwood Blvd & Grant St,37.953867,-121.696261,,"","http://rta.trideltatransit.com/RTT/Public/RoutePositionET.aspx?PlatformTag=428","","","","",""
"810976","810976",Brentwood Blvd & Lone Tree Wy,37.961009,-121.696233,,"","http://rta.trideltatransit.com/RTT/Public/RoutePositionET.aspx?PlatformTag=430","","","","",""
"810710","810710",Brentwood Blvd & Lone Tree Wy,37.960499,-121.695986,,"","http://rta.trideltatransit.com/RTT/Public/RoutePositionET.aspx?PlatformTag=429","","","","",""
"810907","810907",Brentwood Blvd & Oak St,37.931545,-121.695712,,"","http://rta.trideltatransit.com/RTT/Public/RoutePositionET.aspx?PlatformTag=415","","","","",""
"810775","810775",Brentwood Blvd & Oak St,37.93186,-121.695731,,"","http://rta.trideltatransit.com/RTT/Public/RoutePositionET.aspx?PlatformTag=416","","","","",""
"810948","810948",Brentwood Blvd & Sand Creek Rd,37.946203,-121.696281,,"","http://rta.trideltatransit.com/RTT/Public/RoutePositionET.aspx?PlatformTag=424","","","","",""
"810747","810747",Brentwood Blvd & Sand Creek Rd,37.946998,-121.695999,,"","http://rta.trideltatransit.com/RTT/Public/RoutePositionET.aspx?PlatformTag=422","","","","",""
"810723","810723",Brentwood Blvd & Sunset Rd,37.953976,-121.696069,,"","http://rta.trideltatransit.com/RTT/Public/RoutePositionET.aspx?PlatformTag=427","","","","",""
"810752","810752",Brentwood Blvd & Village Dr,37.942007,-121.696076,,"","http://rta.trideltatransit.com/RTT/Public/RoutePositionET.aspx?PlatformTag=423","","","","",""
"810930","810930",Brentwood Blvd & Village Dr,37.941524,-121.696341,,"","http://rta.trideltatransit.com/RTT/Public/RoutePositionET.aspx?PlatformTag=421","","","","",""
"811425","811425",Brentwood Park n Ride,37.933838,-121.698755,,"","http://rta.trideltatransit.com/RTT/Public/RoutePositionET.aspx?PlatformTag=610","","","","",""
"810222","810222",Buchanan Rd & Balboa Ct,37.998644,-121.82313,,"","http://rta.trideltatransit.com/RTT/Public/RoutePositionET.aspx?PlatformTag=347","","","","",""
"819767","819767",Buchanan Rd & Balboa Ct,37.998341,-121.823077,,"","http://rta.trideltatransit.com/RTT/Public/RoutePositionET.aspx?PlatformTag=377","","","","",""
"818469","818469",Buchanan Rd & Campbell Dr,37.997904,-121.886633,,"","http://rta.trideltatransit.com/RTT/Public/RoutePositionET.aspx?PlatformTag=579","","","","",""
"810246","810246",Buchanan Rd & Delta Fair Blvd,37.998719,-121.839217,,"","http://rta.trideltatransit.com/RTT/Public/RoutePositionET.aspx?PlatformTag=349","","","","",""
"814325","814325",Buchanan Rd & Gentrytown Dr,37.99866,-121.836594,,"","http://rta.trideltatransit.com/RTT/Public/RoutePositionET.aspx?PlatformTag=375","","","","",""
"813853","813853",Buchanan Rd & Harbor St,37.998042,-121.887675,,"","http://rta.trideltatransit.com/RTT/Public/RoutePositionET.aspx?PlatformTag=578","","","","",""
"813933","813933",Buchanan Rd & Inverness Dr,37.99789,-121.882025,,"","http://rta.trideltatransit.com/RTT/Public/RoutePositionET.aspx?PlatformTag=581","","","","",""
"810280","810280",Buchanan Rd & Loveridge Rd,37.998046,-121.873138,,"","http://rta.trideltatransit.com/RTT/Public/RoutePositionET.aspx?PlatformTag=341","","","","",""
"819353","819353",Buchanan Rd & Loveridge Rd,37.9979,-121.873037,,"","http://rta.trideltatransit.com/RTT/Public/RoutePositionET.aspx?PlatformTag=371","","","","",""
"818385","818385",Buchanan Rd & McDermott Dr,37.997894,-121.877955,,"","http://rta.trideltatransit.com/RTT/Public/RoutePositionET.aspx?PlatformTag=583","","","","",""
"814855","814855",Buchanan Rd & Meadows Ave,37.997889,-121.862938,,"","http://rta.trideltatransit.com/RTT/Public/RoutePositionET.aspx?PlatformTag=373","","","","",""
"810267","810267",Buchanan Rd & Meadows Ave,37.998067,-121.864524,,"","http://rta.trideltatransit.com/RTT/Public/RoutePositionET.aspx?PlatformTag=343","","","","",""
"818371","818371",Buchanan Rd & San Jose Dr,38.000394,-121.829166,,"","http://rta.trideltatransit.com/RTT/Public/RoutePositionET.aspx?PlatformTag=376","","","","",""
"810233","810233",Buchanan Rd & San Jose Dr,38.00039,-121.830252,,"","http://rta.trideltatransit.com/RTT/Public/RoutePositionET.aspx?PlatformTag=348","","","","",""
"813848","813848",Buchanan Rd & Santa Ana Dr,37.998055,-121.883443,,"","http://rta.trideltatransit.com/RTT/Public/RoutePositionET.aspx?PlatformTag=580","","","","",""
"810251","810251",Buchanan Rd & Somersville Dr,37.998162,-121.842808,,"","http://rta.trideltatransit.com/RTT/Public/RoutePositionET.aspx?PlatformTag=350","","","","",""
"814318","814318",Buchanan Rd & Somersville Rd,37.997873,-121.845605,,"","http://rta.trideltatransit.com/RTT/Public/RoutePositionET.aspx?PlatformTag=374","","","","",""
"813663","813663",Buchanan Rd & Suzanne Dr,37.998052,-121.880624,,"","http://rta.trideltatransit.com/RTT/Public/RoutePositionET.aspx?PlatformTag=582","","","","",""
"814840","814840",Buchanan Rd & Ventura Dr,37.997898,-121.867269,,"","http://rta.trideltatransit.com/RTT/Public/RoutePositionET.aspx?PlatformTag=372","","","","",""
"819437","819437",Buchanan Rd & Ventura Dr,37.998063,-121.868832,,"","http://rta.trideltatransit.com/RTT/Public/RoutePositionET.aspx?PlatformTag=342","","","","",""
"811626","811626",Canada Valley Rd & Canada Hills Dr,37.973553,-121.75417,,"","http://rta.trideltatransit.com/RTT/Public/RoutePositionET.aspx?PlatformTag=247","","","","",""
"811537","811537",Canada Valley Rd & Canada Hills Dr,37.974051,-121.7542,,"","http://rta.trideltatransit.com/RTT/Public/RoutePositionET.aspx?PlatformTag=246","","","","",""
"811571","811571",Canada Valley Rd & Lone Tree Wy,37.962728,-121.747241,,"","http://rta.trideltatransit.com/RTT/Public/RoutePositionET.aspx?PlatformTag=233","","","","",""
"811585","811585",Canada Valley Rd & Lone Tree Wy,37.962017,-121.747534,,"","http://rta.trideltatransit.com/RTT/Public/RoutePositionET.aspx?PlatformTag=232","","","","",""
"811592","811592",Canada Valley Rd & McFarlan Ranch Wy,37.966201,-121.747369,,"","http://rta.trideltatransit.com/RTT/Public/RoutePositionET.aspx?PlatformTag=234","","","","",""
"811563","811563",Canada Valley Rd & McFarlan Ranch Wy,37.96639,-121.747289,,"","http://rta.trideltatransit.com/RTT/Public/RoutePositionET.aspx?PlatformTag=235","","","","",""
"811619","811619",Canada Valley Rd & Palomino Wy,37.971475,-121.75229,,"","http://rta.trideltatransit.com/RTT/Public/RoutePositionET.aspx?PlatformTag=245","","","","",""
"811544","811544",Canada Valley Rd & Palomino Wy,37.971925,-121.752665,,"","http://rta.trideltatransit.com/RTT/Public/RoutePositionET.aspx?PlatformTag=244","","","","",""
"811603","811603",Canada Valley Rd & Vista Grande Dr,37.968817,-121.750498,,"","http://rta.trideltatransit.com/RTT/Public/RoutePositionET.aspx?PlatformTag=237","","","","",""
"811559","811559",Canada Valley Rd & Vista Grande Dr,37.969365,-121.750482,,"","http://rta.trideltatransit.com/RTT/Public/RoutePositionET.aspx?PlatformTag=238","","","","",""
"810354","810354",Cavallo Rd & Amber Dr,38.005766,-121.796679,,"","http://rta.trideltatransit.com/RTT/Public/RoutePositionET.aspx?PlatformTag=627","","","","",""
"810349","810349",Cavallo Rd & East 13th St,38.009174,-121.796585,,"","http://rta.trideltatransit.com/RTT/Public/RoutePositionET.aspx?PlatformTag=629","","","","",""
"810035","810035",Cavallo Rd & East 13th St,38.009146,-121.796802,,"","http://rta.trideltatransit.com/RTT/Public/RoutePositionET.aspx?PlatformTag=628","","","","",""
"816097","816097",Cavallo Rd & East 18th St,38.00481,-121.798277,,"","http://rta.trideltatransit.com/RTT/Public/RoutePositionET.aspx?PlatformTag=397","","","","",""
"810116","810116",Cavallo Rd & Gary Ave,38.000604,-121.796759,,"","http://rta.trideltatransit.com/RTT/Public/RoutePositionET.aspx?PlatformTag=460","","","","",""
"815286","815286",Cavallo Rd & Minner Ave,38.000542,-121.796963,,"","http://rta.trideltatransit.com/RTT/Public/RoutePositionET.aspx?PlatformTag=398","","","","",""
"810128","810128",Cavallo Rd & Parker Ln,38.003296,-121.796708,,"","http://rta.trideltatransit.com/RTT/Public/RoutePositionET.aspx?PlatformTag=461","","","","",""
"810100","810100",Cavallo Rd & Sunset Dr,37.998469,-121.79791,,"","http://rta.trideltatransit.com/RTT/Public/RoutePositionET.aspx?PlatformTag=459","","","","",""
"815293","815293",Cavallo Rd & Sunset Dr,37.998483,-121.798075,,"","http://rta.trideltatransit.com/RTT/Public/RoutePositionET.aspx?PlatformTag=399","","","","",""
"810331","810331",Cavallo Rd & Wilbur Ave,38.011757,-121.79678,,"","http://rta.trideltatransit.com/RTT/Public/RoutePositionET.aspx?PlatformTag=630","","","","",""
"810026","810026",Cavallo Rd & Wilbur Ave,38.011653,-121.796973,,"","http://rta.trideltatransit.com/RTT/Public/RoutePositionET.aspx?PlatformTag=631","","","","",""
"814961","814961",Century Blvd & Brenden,38.008202,-121.844767,,"","http://rta.trideltatransit.com/RTT/Public/RoutePositionET.aspx?PlatformTag=283","","","","",""
"814988","814988",Century Blvd & Brenden,38.007726,-121.844649,,"","http://rta.trideltatransit.com/RTT/Public/RoutePositionET.aspx?PlatformTag=282","","","","",""
"817194","817194",Century Blvd & Century Plz,38.006362,-121.840382,,"","http://rta.trideltatransit.com/RTT/Public/RoutePositionET.aspx?PlatformTag=281","","","","",""
"819136","819136",Century Blvd & Century Plz,38.00597,-121.839142,,"","http://rta.trideltatransit.com/RTT/Public/RoutePositionET.aspx?PlatformTag=280","","","","",""
"817187","817187",Century Blvd & Century Wy,38.009563,-121.848673,,"","http://rta.trideltatransit.com/RTT/Public/RoutePositionET.aspx?PlatformTag=286","","","","",""
"816842","816842",Chester Dr & School St,38.017993,-121.874555,,"","http://rta.trideltatransit.com/RTT/Public/RoutePositionET.aspx?PlatformTag=487","","","","",""
"819382","819382",Civic Ave & 17th West St,38.021348,-121.891622,,"","http://rta.trideltatransit.com/RTT/Public/RoutePositionET.aspx?PlatformTag=184","","","","",""
"812630","812630",Civic Ave & Davi Ave,38.02157,-121.891523,,"","http://rta.trideltatransit.com/RTT/Public/RoutePositionET.aspx?PlatformTag=115","","","","",""
"812227","812227",Civic Ave & Railroad Ave,38.020857,-121.889538,,"","http://rta.trideltatransit.com/RTT/Public/RoutePositionET.aspx?PlatformTag=185","","","","",""
"812648","812648",Civic Ave & Railroad Ave,38.021081,-121.889472,,"","http://rta.trideltatransit.com/RTT/Public/RoutePositionET.aspx?PlatformTag=116","","","","",""
"812871","812871",Columbia St & East 14th St,38.020113,-121.873553,,"","http://rta.trideltatransit.com/RTT/Public/RoutePositionET.aspx?PlatformTag=124","","","","",""
"812145","812145",Columbia St & East 14th St,38.019841,-121.873846,,"","http://rta.trideltatransit.com/RTT/Public/RoutePositionET.aspx?PlatformTag=187","","","","",""
"816971","816971",Concord BART,37.974766,-122.029025,,"","http://rta.trideltatransit.com/RTT/Public/RoutePositionET.aspx?PlatformTag=491","","","","",""
"815666","815666",Contra Loma Blvd & Contra Loma Plaza,37.990729,-121.822651,,"","http://rta.trideltatransit.com/RTT/Public/RoutePositionET.aspx?PlatformTag=381","","","","",""
"810205","810205",Contra Loma Blvd & Gatter Dr,37.986202,-121.823782,,"","http://rta.trideltatransit.com/RTT/Public/RoutePositionET.aspx?PlatformTag=345","","","","",""
"810192","810192",Contra Loma Blvd & James Donlon Blvd,37.982954,-121.825097,,"","http://rta.trideltatransit.com/RTT/Public/RoutePositionET.aspx?PlatformTag=344","","","","",""
"815678","815678",Contra Loma Blvd & Longview Rd,37.989222,-121.823181,,"","http://rta.trideltatransit.com/RTT/Public/RoutePositionET.aspx?PlatformTag=380","","","","",""
"810214","810214",Contra Loma Blvd & Putnam St,37.991308,-121.822329,,"","http://rta.trideltatransit.com/RTT/Public/RoutePositionET.aspx?PlatformTag=346","","","","",""
"815645","815645",Contra Loma Blvd & San Jose Dr,37.994019,-121.82283,,"","http://rta.trideltatransit.com/RTT/Public/RoutePositionET.aspx?PlatformTag=379","","","","",""
"819812","819812",Contra Loma Blvd & St Francis Dr NB,37.997405,-121.822379,,"","http://rta.trideltatransit.com/RTT/Public/RoutePositionET.aspx?PlatformTag=613","","","","",""
"815650","815650",Contra Loma Blvd & St. Francis Dr SB,37.996671,-121.822858,,"","http://rta.trideltatransit.com/RTT/Public/RoutePositionET.aspx?PlatformTag=378","","","","",""
"810455","810455",Dallas Ranch Rd & Cache Peak Dr,37.970567,-121.796956,,"","http://rta.trideltatransit.com/RTT/Public/RoutePositionET.aspx?PlatformTag=692","","","","",""
"810464","810464",Dallas Ranch Rd & Cache Peak Dr,37.969732,-121.79668,,"","http://rta.trideltatransit.com/RTT/Public/RoutePositionET.aspx?PlatformTag=691","","","","",""
"810440","810440",Dallas Ranch Rd & Mt Hamilton Dr,37.96742,-121.796942,,"","http://rta.trideltatransit.com/RTT/Public/RoutePositionET.aspx?PlatformTag=689","","","","",""
"810472","810472",Dallas Ranch Rd & Mt Hamilton Dr,37.96746,-121.796661,,"","http://rta.trideltatransit.com/RTT/Public/RoutePositionET.aspx?PlatformTag=690","","","","",""
"810438","810438",Dallas Ranch Rd & Stonecrest Dr,37.962305,-121.797582,,"","http://rta.trideltatransit.com/RTT/Public/RoutePositionET.aspx?PlatformTag=687","","","","",""
"810486","810486",Dallas Ranch Rd & Stonecrest Dr,37.962504,-121.797326,,"","http://rta.trideltatransit.com/RTT/Public/RoutePositionET.aspx?PlatformTag=688","","","","",""
"810602","810602",Davison Dr & Ashburton Dr,37.987251,-121.796556,,"","http://rta.trideltatransit.com/RTT/Public/RoutePositionET.aspx?PlatformTag=448","","","","",""
"810558","810558",Davison Dr & Burwood Wy,37.98721,-121.795631,,"","http://rta.trideltatransit.com/RTT/Public/RoutePositionET.aspx?PlatformTag=636","","","","",""
"810591","810591",Davison Dr & Garrow Dr,37.98585,-121.799285,,"","http://rta.trideltatransit.com/RTT/Public/RoutePositionET.aspx?PlatformTag=450","","","","",""
"810562","810562",Davison Dr & Garrow Dr,37.986106,-121.798406,,"","http://rta.trideltatransit.com/RTT/Public/RoutePositionET.aspx?PlatformTag=635","","","","",""
"810543","810543",Davison Dr & Harbour Dr,37.989532,-121.790471,,"","http://rta.trideltatransit.com/RTT/Public/RoutePositionET.aspx?PlatformTag=637","","","","",""
"810618","810618",Davison Dr & Harbour Dr,37.989615,-121.790708,,"","http://rta.trideltatransit.com/RTT/Public/RoutePositionET.aspx?PlatformTag=449","","","","",""
"810625","810625",Davison Dr & Harris Dr,37.990445,-121.787468,,"","http://rta.trideltatransit.com/RTT/Public/RoutePositionET.aspx?PlatformTag=447","","","","",""
"819798","819798",Davison Dr & Harris Dr,37.990253,-121.787355,,"","http://rta.trideltatransit.com/RTT/Public/RoutePositionET.aspx?PlatformTag=638","","","","",""
"810589","810589",Davison Dr & Mountaire Dr,37.985326,-121.802808,,"","http://rta.trideltatransit.com/RTT/Public/RoutePositionET.aspx?PlatformTag=451","","","","",""
"810570","810570",Davison Dr & Sunset Ln,37.985114,-121.803171,,"","http://rta.trideltatransit.com/RTT/Public/RoutePositionET.aspx?PlatformTag=634","","","","",""
"817322","817322",Deer Valley Rd & Asilomar Dr,37.972797,-121.783901,,"","http://rta.trideltatransit.com/RTT/Public/RoutePositionET.aspx?PlatformTag=48","","","","",""
"817442","817442",Deer Valley Rd & Asilomar Dr,37.973922,-121.78441,,"","http://rta.trideltatransit.com/RTT/Public/RoutePositionET.aspx?PlatformTag=47","","","","",""
"817346","817346",Deer Valley Rd & Bluerock Dr,37.980299,-121.784949,,"","http://rta.trideltatransit.com/RTT/Public/RoutePositionET.aspx?PlatformTag=43","","","","",""
"817426","817426",Deer Valley Rd & Bluerock Dr,37.980548,-121.784324,,"","http://rta.trideltatransit.com/RTT/Public/RoutePositionET.aspx?PlatformTag=44","","","","",""
"817351","817351",Deer Valley Rd & Carpinteria Dr,37.983074,-121.78424,,"","http://rta.trideltatransit.com/RTT/Public/RoutePositionET.aspx?PlatformTag=42","","","","",""
"817419","817419",Deer Valley Rd & Carpinteria Dr,37.98401,-121.784498,,"","http://rta.trideltatransit.com/RTT/Public/RoutePositionET.aspx?PlatformTag=41","","","","",""
"817314","817314",Deer Valley Rd & Country Hills Dr,37.970606,-121.781772,,"","http://rta.trideltatransit.com/RTT/Public/RoutePositionET.aspx?PlatformTag=49","","","","",""
"817457","817457",Deer Valley Rd & Country Hills Dr,37.971582,-121.782515,,"","http://rta.trideltatransit.com/RTT/Public/RoutePositionET.aspx?PlatformTag=15","","","","",""
"817379","817379",Deer Valley Rd & Hillcrest Tce Ct,37.988968,-121.785644,,"","http://rta.trideltatransit.com/RTT/Public/RoutePositionET.aspx?PlatformTag=38","","","","",""
"817403","817403",Deer Valley Rd & Hillcrest Tce Ct,37.987695,-121.78556,,"","http://rta.trideltatransit.com/RTT/Public/RoutePositionET.aspx?PlatformTag=39","","","","",""
"813587","813587",Deer Valley Rd & Kaiser,37.951553,-121.778018,,"","http://rta.trideltatransit.com/RTT/Public/RoutePositionET.aspx?PlatformTag=100","","","","",""
"817305","817305",Deer Valley Rd & Lone Tree Wy,37.966525,-121.780121,,"","http://rta.trideltatransit.com/RTT/Public/RoutePositionET.aspx?PlatformTag=50","","","","",""
"817461","817461",Deer Valley Rd & Lone Tree Wy,37.966433,-121.779861,,"","http://rta.trideltatransit.com/RTT/Public/RoutePositionET.aspx?PlatformTag=14","","","","",""
"815856","815856",Deer Valley Rd & Prewett Ranch Dr,37.960684,-121.778498,,"","http://rta.trideltatransit.com/RTT/Public/RoutePositionET.aspx?PlatformTag=98","","","","",""
"813443","813443",Deer Valley Rd & Prewett Ranch Dr,37.957745,-121.77811,,"","http://rta.trideltatransit.com/RTT/Public/RoutePositionET.aspx?PlatformTag=99","","","","",""
"818938","818938",Deer Valley Rd & Prewett Ranch Dr,37.960613,-121.778773,,"","http://rta.trideltatransit.com/RTT/Public/RoutePositionET.aspx?PlatformTag=97","","","","",""
"817435","817435",Deer Valley Rd & Rocky Point Dr,37.977328,-121.786226,,"","http://rta.trideltatransit.com/RTT/Public/RoutePositionET.aspx?PlatformTag=45","","","","",""
"817333","817333",Deer Valley Rd & Rocky Point Dr,37.977062,-121.786455,,"","http://rta.trideltatransit.com/RTT/Public/RoutePositionET.aspx?PlatformTag=46","","","","",""
"817367","817367",Deer Valley Rd & Wildflower Dr,37.98651,-121.785906,,"","http://rta.trideltatransit.com/RTT/Public/RoutePositionET.aspx?PlatformTag=40","","","","",""
"812956","812956",Delta Fair Blvd & Belle Dr,38.006108,-121.854058,,"","http://rta.trideltatransit.com/RTT/Public/RoutePositionET.aspx?PlatformTag=626","","","","",""
"812081","812081",Delta Fair Blvd & Belle Dr,38.005453,-121.854222,,"","http://rta.trideltatransit.com/RTT/Public/RoutePositionET.aspx?PlatformTag=199","","","","",""
"815433","815433",Delta Fair Blvd & Gentrytown Dr,37.999639,-121.838077,,"","http://rta.trideltatransit.com/RTT/Public/RoutePositionET.aspx?PlatformTag=303","","","","",""
"816130","816130",Delta Fair Blvd & Gentrytown Dr,37.999618,-121.837866,,"","http://rta.trideltatransit.com/RTT/Public/RoutePositionET.aspx?PlatformTag=302","","","","",""
"812987","812987",Delta Fair Blvd & Kaiser,38.004146,-121.842735,,"","http://rta.trideltatransit.com/RTT/Public/RoutePositionET.aspx?PlatformTag=149","","","","",""
"812068","812068",Delta Fair Blvd & Kendree St,38.003001,-121.847186,,"","http://rta.trideltatransit.com/RTT/Public/RoutePositionET.aspx?PlatformTag=201","","","","",""
"819094","819094",Delta Fair Blvd & Kendree St,38.003196,-121.847145,,"","http://rta.trideltatransit.com/RTT/Public/RoutePositionET.aspx?PlatformTag=148","","","","",""
"812075","812075",Delta Fair Blvd & School St,38.003651,-121.850311,,"","http://rta.trideltatransit.com/RTT/Public/RoutePositionET.aspx?PlatformTag=200","","","","",""
"812960","812960",Delta Fair Blvd & School St,38.003769,-121.850018,,"","http://rta.trideltatransit.com/RTT/Public/RoutePositionET.aspx?PlatformTag=147","","","","",""
"812052","812052",Delta Fair Blvd & Somersville Towne Center,38.003644,-121.841802,,"","http://rta.trideltatransit.com/RTT/Public/RoutePositionET.aspx?PlatformTag=202","","","","",""
"815031","815031",Driftwood Dr and Coastview Ct,38.025081,-121.983562,,"","http://rta.trideltatransit.com/RTT/Public/RoutePositionET.aspx?PlatformTag=497","","","","",""
"816701","816701",Driftwood Dr & Coastview Ct,38.024823,-121.983448,,"","http://rta.trideltatransit.com/RTT/Public/RoutePositionET.aspx?PlatformTag=496","","","","",""
"818411","818411",Driftwood Dr & Pacifica Ave,38.033679,-121.978947,,"","http://rta.trideltatransit.com/RTT/Public/RoutePositionET.aspx?PlatformTag=505","","","","",""
"815083","815083",Driftwood Dr & Pacifica Ave,38.033897,-121.977882,,"","http://rta.trideltatransit.com/RTT/Public/RoutePositionET.aspx?PlatformTag=504","","","","",""
"815054","815054",Driftwood Dr & Steffa St,38.030012,-121.978879,,"","http://rta.trideltatransit.com/RTT/Public/RoutePositionET.aspx?PlatformTag=503","","","","",""
"818407","818407",Driftwood Dr & Steffa St,38.029696,-121.978993,,"","http://rta.trideltatransit.com/RTT/Public/RoutePositionET.aspx?PlatformTag=502","","","","",""
"812828","812828",East 10th St & Los Medanos St,38.02755,-121.883331,,"","http://rta.trideltatransit.com/RTT/Public/RoutePositionET.aspx?PlatformTag=123","","","","",""
"812197","812197",East 10th St & Los Medanos St,38.027265,-121.882841,,"","http://rta.trideltatransit.com/RTT/Public/RoutePositionET.aspx?PlatformTag=192","","","","",""
"812863","812863",East 12th St & Columbia St,38.022573,-121.872916,,"","http://rta.trideltatransit.com/RTT/Public/RoutePositionET.aspx?PlatformTag=122","","","","",""
"815744","815744",East 12th St & Columbia St,38.022377,-121.872753,,"","http://rta.trideltatransit.com/RTT/Public/RoutePositionET.aspx?PlatformTag=188","","","","",""
"812859","812859",East 12th St & Pine St,38.023579,-121.87655,,"","http://rta.trideltatransit.com/RTT/Public/RoutePositionET.aspx?PlatformTag=121","","","","",""
"812166","812166",East 12th St & Pine St,38.023319,-121.876156,,"","http://rta.trideltatransit.com/RTT/Public/RoutePositionET.aspx?PlatformTag=189","","","","",""
"818741","818741",East 18th St & Alpha Wy,38.004816,-121.800858,,"","http://rta.trideltatransit.com/RTT/Public/RoutePositionET.aspx?PlatformTag=396","","","","",""
"817765","817765",East 18th St and CA-160,38.004969,-121.754256,,"","http://rta.trideltatransit.com/RTT/Public/RoutePositionET.aspx?PlatformTag=471","","","","",""
"810057","810057",East 18th St & Biglow Dr,38.004787,-121.793425,,"","http://rta.trideltatransit.com/RTT/Public/RoutePositionET.aspx?PlatformTag=677","","","","",""
"810137","810137",East 18th St & Cavallo Rd,38.004988,-121.797203,,"","http://rta.trideltatransit.com/RTT/Public/RoutePositionET.aspx?PlatformTag=462","","","","",""
"810042","810042",East 18th St & Cavallo Rd,38.004807,-121.796225,,"","http://rta.trideltatransit.com/RTT/Public/RoutePositionET.aspx?PlatformTag=675","","","","",""
"813352","813352",East 18th St & Drive In Way,38.005247,-121.756023,,"","http://rta.trideltatransit.com/RTT/Public/RoutePositionET.aspx?PlatformTag=77","","","","",""
"813296","813296",East 18th St & Hargrove St,38.004998,-121.782936,,"","http://rta.trideltatransit.com/RTT/Public/RoutePositionET.aspx?PlatformTag=73","","","","",""
"810144","810144",East 18th St & Helmuth Ln,38.004993,-121.801304,,"","http://rta.trideltatransit.com/RTT/Public/RoutePositionET.aspx?PlatformTag=463","","","","",""
"817806","817806",East 18th St & Hillcrest Ave,38.003914,-121.786563,,"","http://rta.trideltatransit.com/RTT/Public/RoutePositionET.aspx?PlatformTag=467","","","","",""
"813306","813306",East 18th St & St Claire Dr,38.005017,-121.778751,,"","http://rta.trideltatransit.com/RTT/Public/RoutePositionET.aspx?PlatformTag=75","","","","",""
"810365","810365",East 18th St & Tce Dr,38.005032,-121.792254,,"","http://rta.trideltatransit.com/RTT/Public/RoutePositionET.aspx?PlatformTag=678","","","","",""
"817796","817796",East 18th St & Trembath Ln,38.004829,-121.780432,,"","http://rta.trideltatransit.com/RTT/Public/RoutePositionET.aspx?PlatformTag=468","","","","",""
"813323","813323",East 18th St & Viera Ave,38.005056,-121.773172,,"","http://rta.trideltatransit.com/RTT/Public/RoutePositionET.aspx?PlatformTag=76","","","","",""
"817783","817783",East 18th St & Viera Ave,38.004829,-121.773234,,"","http://rta.trideltatransit.com/RTT/Public/RoutePositionET.aspx?PlatformTag=469","","","","",""
"817777","817777",East 18th St & Wilson St,38.004876,-121.765209,,"","http://rta.trideltatransit.com/RTT/Public/RoutePositionET.aspx?PlatformTag=470","","","","",""
"813347","813347",East 18th St & Wilson St,38.005071,-121.765062,,"","http://rta.trideltatransit.com/RTT/Public/RoutePositionET.aspx?PlatformTag=679","","","","",""
"816549","816549",East 3rd St & Harbor St,38.032287,-121.878781,,"","http://rta.trideltatransit.com/RTT/Public/RoutePositionET.aspx?PlatformTag=557","","","","",""
"816554","816554",East 3rd St & Riverway Dr,38.032776,-121.8799,,"","http://rta.trideltatransit.com/RTT/Public/RoutePositionET.aspx?PlatformTag=556","","","","",""
"812109","812109",East Leland Rd & Commerce Pl,38.008195,-121.864655,,"","http://rta.trideltatransit.com/RTT/Public/RoutePositionET.aspx?PlatformTag=197","","","","",""
"814552","814552",East Leland Rd & Dias Cir,38.008848,-121.873939,,"","http://rta.trideltatransit.com/RTT/Public/RoutePositionET.aspx?PlatformTag=367","","","","",""
"814450","814450",East Leland Rd & Freed Wy,38.009728,-121.8803,,"","http://rta.trideltatransit.com/RTT/Public/RoutePositionET.aspx?PlatformTag=336","","","","",""
"812939","812939",East Leland Rd & Gladstone Dr,38.008534,-121.865642,,"","http://rta.trideltatransit.com/RTT/Public/RoutePositionET.aspx?PlatformTag=145","","","","",""
"814466","814466",East Leland Rd & Harbor St,38.011206,-121.886528,,"","http://rta.trideltatransit.com/RTT/Public/RoutePositionET.aspx?PlatformTag=335","","","","",""
"817899","817899",East Leland Rd & Harbor St,38.010755,-121.885601,,"","http://rta.trideltatransit.com/RTT/Public/RoutePositionET.aspx?PlatformTag=364","","","","",""
"814801","814801",East Leland Rd & Homewood Dr,38.009716,-121.881292,,"","http://rta.trideltatransit.com/RTT/Public/RoutePositionET.aspx?PlatformTag=365","","","","",""
"819444","819444",East Leland Rd & Lakeview Cir,38.007256,-121.862094,,"","http://rta.trideltatransit.com/RTT/Public/RoutePositionET.aspx?PlatformTag=146","","","","",""
"819073","819073",East Leland Rd & Lakeview Cir,38.007891,-121.861317,,"","http://rta.trideltatransit.com/RTT/Public/RoutePositionET.aspx?PlatformTag=198","","","","",""
"812925","812925",East Leland Rd & Loveridge Rd,38.008081,-121.869694,,"","http://rta.trideltatransit.com/RTT/Public/RoutePositionET.aspx?PlatformTag=144","","","","",""
"812113","812113",East Leland Rd & Loveridge Rd,38.007926,-121.870225,,"","http://rta.trideltatransit.com/RTT/Public/RoutePositionET.aspx?PlatformTag=196","","","","",""
"810312","810312",East Leland Rd & Loveridge Rd,38.008477,-121.87144,,"","http://rta.trideltatransit.com/RTT/Public/RoutePositionET.aspx?PlatformTag=338","","","","",""
"814445","814445",East Leland Rd & Piedmont Wy,38.009393,-121.875367,,"","http://rta.trideltatransit.com/RTT/Public/RoutePositionET.aspx?PlatformTag=337","","","","",""
"818430","818430",East Leland Rd & Railroad Ave,38.011982,-121.890725,,"","http://rta.trideltatransit.com/RTT/Public/RoutePositionET.aspx?PlatformTag=363","","","","",""
"814263","814263",East Leland Rd & Railroad Ave,38.012154,-121.890473,,"","http://rta.trideltatransit.com/RTT/Public/RoutePositionET.aspx?PlatformTag=334","","","","",""
"814547","814547",East Leland Rd & Stoneridge Dr,38.0092,-121.879112,,"","http://rta.trideltatransit.com/RTT/Public/RoutePositionET.aspx?PlatformTag=366","","","","",""
"816596","816596",East Marina Blvd & Pelican Loop,38.03599,-121.884205,,"","http://rta.trideltatransit.com/RTT/Public/RoutePositionET.aspx?PlatformTag=553","","","","",""
"816577","816577",East Marina Blvd & Pelican Loop,38.036631,-121.884432,,"","http://rta.trideltatransit.com/RTT/Public/RoutePositionET.aspx?PlatformTag=552","","","","",""
"818858","818858",East St & Bacon St,37.982543,-122.034049,,"","http://rta.trideltatransit.com/RTT/Public/RoutePositionET.aspx?PlatformTag=490","","","","",""
"816992","816992",East St & Bacon St,37.982701,-122.033933,,"","http://rta.trideltatransit.com/RTT/Public/RoutePositionET.aspx?PlatformTag=489","","","","",""
"810061","810061",East Tregallas Rd & Countrywood Dr,37.996201,-121.788275,,"","http://rta.trideltatransit.com/RTT/Public/RoutePositionET.aspx?PlatformTag=711","","","","",""
"815335","815335",East Tregallas Rd & Countrywood Dr,37.995817,-121.787545,,"","http://rta.trideltatransit.com/RTT/Public/RoutePositionET.aspx?PlatformTag=403","","","","",""
"810074","810074",East Tregallas Rd & Harbour Dr,37.996963,-121.791557,,"","http://rta.trideltatransit.com/RTT/Public/RoutePositionET.aspx?PlatformTag=456","","","","",""
"814285","814285",East Tregallas Rd & Harbour Dr,37.996838,-121.79145,,"","http://rta.trideltatransit.com/RTT/Public/RoutePositionET.aspx?PlatformTag=543","","","","",""
"815319","815319",East Tregallas Rd & Patricia Ave,37.997455,-121.795069,,"","http://rta.trideltatransit.com/RTT/Public/RoutePositionET.aspx?PlatformTag=542","","","","",""
"810088","810088",East Tregallas Rd & Patricia Ave,37.997616,-121.795375,,"","http://rta.trideltatransit.com/RTT/Public/RoutePositionET.aspx?PlatformTag=457","","","","",""
"819883","819883",Empire Ave & El Monte Dr,37.99175,-121.732451,,"","http://rta.trideltatransit.com/RTT/Public/RoutePositionET.aspx?PlatformTag=764","","","","",""
"818760","818760",Empire Ave & Gamay Dr,37.994319,-121.732229,,"","http://rta.trideltatransit.com/RTT/Public/RoutePositionET.aspx?PlatformTag=32","","","","",""
"819877","819877",Empire Ave & Holly Dr,37.99369,-121.7325,,"","http://rta.trideltatransit.com/RTT/Public/RoutePositionET.aspx?PlatformTag=762","","","","",""
"819170","819170",Empire Ave & Lone Tree Wy,37.960649,-121.732642,,"","http://rta.trideltatransit.com/RTT/Public/RoutePositionET.aspx?PlatformTag=717","","","","",""
"813659","813659",Empire Ave & Sauterne Wy,37.992385,-121.732237,,"","http://rta.trideltatransit.com/RTT/Public/RoutePositionET.aspx?PlatformTag=27","","","","",""
"819940","819940",Escobar St & Alhambra Ave,38.017091,-122.138483,,"","http://rta.trideltatransit.com/RTT/Public/RoutePositionET.aspx?PlatformTag=734","","","","",""
"816327","816327",Evora Rd & Driftwood Dr,38.024286,-121.983026,,"","http://rta.trideltatransit.com/RTT/Public/RoutePositionET.aspx?PlatformTag=495","","","","",""
"819307","819307",Evora Rd & Mota Dr,38.024981,-121.97679,,"","http://rta.trideltatransit.com/RTT/Public/RoutePositionET.aspx?PlatformTag=498","","","","",""
"816294","816294",Evora Rd & Pomo St,38.024591,-121.966464,,"","http://rta.trideltatransit.com/RTT/Public/RoutePositionET.aspx?PlatformTag=535","","","","",""
"816304","816304",Evora Rd & St Tropez Dr,38.024872,-121.974141,,"","http://rta.trideltatransit.com/RTT/Public/RoutePositionET.aspx?PlatformTag=499","","","","",""
"811473","811473",Fairview Ave & Central Blvd,37.932102,-121.72376,,"","http://rta.trideltatransit.com/RTT/Public/RoutePositionET.aspx?PlatformTag=714","","","","",""
"811378","811378",Fairview Ave & Central Blvd,37.933006,-121.723472,,"","http://rta.trideltatransit.com/RTT/Public/RoutePositionET.aspx?PlatformTag=669","","","","",""
"811494","811494",Fairview Ave & Sand Creek Rd,37.943527,-121.723734,,"","http://rta.trideltatransit.com/RTT/Public/RoutePositionET.aspx?PlatformTag=650","","","","",""
"811366","811366",Fairview Ave & San Jose Ave,37.940296,-121.7232,,"","http://rta.trideltatransit.com/RTT/Public/RoutePositionET.aspx?PlatformTag=604","","","","",""
"811487","811487",Fairview Ave & San Jose Ave,37.939536,-121.723989,,"","http://rta.trideltatransit.com/RTT/Public/RoutePositionET.aspx?PlatformTag=603","","","","",""
"818328","818328",Fairview Dr & Potomac Ct,38.001445,-121.84494,,"","http://rta.trideltatransit.com/RTT/Public/RoutePositionET.aspx?PlatformTag=754","","","","",""
"815524","815524",Fitzuren Rd & G St,37.997704,-121.81656,,"","http://rta.trideltatransit.com/RTT/Public/RoutePositionET.aspx?PlatformTag=320","","","","",""
"815390","815390",Gentrytown Dr & Curtis Dr,37.988003,-121.839478,,"","http://rta.trideltatransit.com/RTT/Public/RoutePositionET.aspx?PlatformTag=313","","","","",""
"815498","815498",Gentrytown Dr & Dimaggio Wy,37.987155,-121.838751,,"","http://rta.trideltatransit.com/RTT/Public/RoutePositionET.aspx?PlatformTag=314","","","","",""
"815467","815467",Gentrytown Dr & Jefferson Wy,37.991329,-121.840228,,"","http://rta.trideltatransit.com/RTT/Public/RoutePositionET.aspx?PlatformTag=311","","","","",""
"819284","819284",Gentrytown Dr & Jefferson Wy,37.991982,-121.840074,,"","http://rta.trideltatransit.com/RTT/Public/RoutePositionET.aspx?PlatformTag=310","","","","",""
"815446","815446",Gentrytown Dr & Lopez Dr,37.99639,-121.838371,,"","http://rta.trideltatransit.com/RTT/Public/RoutePositionET.aspx?PlatformTag=307","","","","",""
"815422","815422",Gentrytown Dr & Madrid Ln,37.997058,-121.838073,,"","http://rta.trideltatransit.com/RTT/Public/RoutePositionET.aspx?PlatformTag=306","","","","",""
"815388","815388",Gentrytown Dr & Meredith Wy,37.984603,-121.835736,,"","http://rta.trideltatransit.com/RTT/Public/RoutePositionET.aspx?PlatformTag=315","","","","",""
"815480","815480",Gentrytown Dr & Putnam St,37.989485,-121.840277,,"","http://rta.trideltatransit.com/RTT/Public/RoutePositionET.aspx?PlatformTag=312","","","","",""
"815414","815414",Gentrytown Dr & Sequoia Dr,37.993471,-121.839732,,"","http://rta.trideltatransit.com/RTT/Public/RoutePositionET.aspx?PlatformTag=308","","","","",""
"815451","815451",Gentrytown Dr & Sequoia Dr,37.993428,-121.839903,,"","http://rta.trideltatransit.com/RTT/Public/RoutePositionET.aspx?PlatformTag=309","","","","",""
"817156","817156",Grant St & Ohara Ave,37.953868,-121.713601,,"","http://rta.trideltatransit.com/RTT/Public/RoutePositionET.aspx?PlatformTag=743","","","","",""
"818668","818668",G St & West 10th St,38.011514,-121.813729,,"","http://rta.trideltatransit.com/RTT/Public/RoutePositionET.aspx?PlatformTag=388","","","","",""
"818681","818681",G St & West 7th St,38.012986,-121.813855,,"","http://rta.trideltatransit.com/RTT/Public/RoutePositionET.aspx?PlatformTag=387","","","","",""
"818675","818675",G St & West 7th St,38.013237,-121.813726,,"","http://rta.trideltatransit.com/RTT/Public/RoutePositionET.aspx?PlatformTag=386","","","","",""
"812184","812184",Harbor St & 10th St,38.026283,-121.878767,,"","http://rta.trideltatransit.com/RTT/Public/RoutePositionET.aspx?PlatformTag=193","","","","",""
"817248","817248",Harbor St & Army St,38.017879,-121.881746,,"","http://rta.trideltatransit.com/RTT/Public/RoutePositionET.aspx?PlatformTag=485","","","","",""
"816861","816861",Harbor St & Central,38.023949,-121.879596,,"","http://rta.trideltatransit.com/RTT/Public/RoutePositionET.aspx?PlatformTag=480","","","","",""
"816857","816857",Harbor St & Central Ave,38.023811,-121.879337,,"","http://rta.trideltatransit.com/RTT/Public/RoutePositionET.aspx?PlatformTag=479","","","","",""
"819158","819158",Harbor St & East 10th St,38.026506,-121.878663,,"","http://rta.trideltatransit.com/RTT/Public/RoutePositionET.aspx?PlatformTag=710","","","","",""
"812837","812837",Harbor St & East 10th St,38.026358,-121.878432,,"","http://rta.trideltatransit.com/RTT/Public/RoutePositionET.aspx?PlatformTag=119","","","","",""
"812844","812844",Harbor St & East 12th St,38.024598,-121.878977,,"","http://rta.trideltatransit.com/RTT/Public/RoutePositionET.aspx?PlatformTag=120","","","","",""
"812742","812742",Harbor St & East Leland Rd,38.011448,-121.885801,,"","http://rta.trideltatransit.com/RTT/Public/RoutePositionET.aspx?PlatformTag=132","","","","",""
"812178","812178",Harbor St & East Santa Fe Ave,38.024756,-121.879245,,"","http://rta.trideltatransit.com/RTT/Public/RoutePositionET.aspx?PlatformTag=190","","","","",""
"812719","812719",Harbor St & Garcia Ave,38.012474,-121.885707,,"","http://rta.trideltatransit.com/RTT/Public/RoutePositionET.aspx?PlatformTag=130","","","","",""
"818901","818901",Harbor St & Leland Ln,38.010524,-121.886452,,"","http://rta.trideltatransit.com/RTT/Public/RoutePositionET.aspx?PlatformTag=134","","","","",""
"812695","812695",Harbor St & Presidio Ln,38.009195,-121.887161,,"","http://rta.trideltatransit.com/RTT/Public/RoutePositionET.aspx?PlatformTag=136","","","","",""
"816874","816874",Harbor St & School St,38.019234,-121.881527,,"","http://rta.trideltatransit.com/RTT/Public/RoutePositionET.aspx?PlatformTag=484","","","","",""
"816819","816819",Harbor St & School St,38.019326,-121.881196,,"","http://rta.trideltatransit.com/RTT/Public/RoutePositionET.aspx?PlatformTag=483","","","","",""
"817823","817823",Hillcrest Ave & Arzate Ln,38.001144,-121.787471,,"","http://rta.trideltatransit.com/RTT/Public/RoutePositionET.aspx?PlatformTag=465","","","","",""
"811690","811690",Hillcrest Ave & Bellflower Dr,37.983338,-121.770818,,"","http://rta.trideltatransit.com/RTT/Public/RoutePositionET.aspx?PlatformTag=254","","","","",""
"813212","813212",Hillcrest Ave & Bellflower Dr,37.983115,-121.770023,,"","http://rta.trideltatransit.com/RTT/Public/RoutePositionET.aspx?PlatformTag=88","","","","",""
"811748","811748",Hillcrest Ave & Country Hills Dr,37.966858,-121.759895,,"","http://rta.trideltatransit.com/RTT/Public/RoutePositionET.aspx?PlatformTag=236","","","","",""
"813174","813174",Hillcrest Ave & Country Hills Dr,37.966083,-121.760159,,"","http://rta.trideltatransit.com/RTT/Public/RoutePositionET.aspx?PlatformTag=95","","","","",""
"819297","819297",Hillcrest Ave & Deerfield Dr,37.973134,-121.762925,,"","http://rta.trideltatransit.com/RTT/Public/RoutePositionET.aspx?PlatformTag=93","","","","",""
"815201","815201",Hillcrest Ave & Deerfield Dr,37.973571,-121.762628,,"","http://rta.trideltatransit.com/RTT/Public/RoutePositionET.aspx?PlatformTag=249","","","","",""
"817380","817380",Hillcrest Ave & East Tregallas Rd,37.994002,-121.784506,,"","http://rta.trideltatransit.com/RTT/Public/RoutePositionET.aspx?PlatformTag=37","","","","",""
"813208","813208",Hillcrest Ave & Golden Bear Dr,37.977018,-121.762877,,"","http://rta.trideltatransit.com/RTT/Public/RoutePositionET.aspx?PlatformTag=89","","","","",""
"811711","811711",Hillcrest Ave & Hidden Gln Dr,37.977685,-121.762527,,"","http://rta.trideltatransit.com/RTT/Public/RoutePositionET.aspx?PlatformTag=248","","","","",""
"817398","817398",Hillcrest Ave & Larkspur Dr,37.995242,-121.784724,,"","http://rta.trideltatransit.com/RTT/Public/RoutePositionET.aspx?PlatformTag=36","","","","",""
"811730","811730",Hillcrest Ave & Laurel Rd,37.970526,-121.760364,,"","http://rta.trideltatransit.com/RTT/Public/RoutePositionET.aspx?PlatformTag=239","","","","",""
"811753","811753",Hillcrest Ave & Lone Tree Wy,37.962376,-121.75978,,"","http://rta.trideltatransit.com/RTT/Public/RoutePositionET.aspx?PlatformTag=231","","","","",""
"816679","816679",Hillcrest Ave & Renwick Ln,38.000252,-121.787636,,"","http://rta.trideltatransit.com/RTT/Public/RoutePositionET.aspx?PlatformTag=71","","","","",""
"813188","813188",Hillcrest Ave & Sterling Hill Dr,37.97071,-121.760945,,"","http://rta.trideltatransit.com/RTT/Public/RoutePositionET.aspx?PlatformTag=94","","","","",""
"817224","817224",Hillcrest Ave & Via Dora Dr,37.983317,-121.773435,,"","http://rta.trideltatransit.com/RTT/Public/RoutePositionET.aspx?PlatformTag=255","","","","",""
"813249","813249",Hillcrest Ave & Via Dora Dr,37.983098,-121.772853,,"","http://rta.trideltatransit.com/RTT/Public/RoutePositionET.aspx?PlatformTag=87","","","","",""
"813254","813254",Hillcrest Ave & Wildflower Dr,37.987003,-121.780357,,"","http://rta.trideltatransit.com/RTT/Public/RoutePositionET.aspx?PlatformTag=86","","","","",""
"813220","813220",Hillcrest Ave & Wild Horse Rd,37.981534,-121.76604,,"","http://rta.trideltatransit.com/RTT/Public/RoutePositionET.aspx?PlatformTag=709","","","","",""
"811707","811707",Hillcrest Ave & Wild Horse Rd,37.982215,-121.766942,,"","http://rta.trideltatransit.com/RTT/Public/RoutePositionET.aspx?PlatformTag=256","","","","",""
"814302","814302",Hillcrest Ave & Yellowstone Dr,38.003281,-121.787641,,"","http://rta.trideltatransit.com/RTT/Public/RoutePositionET.aspx?PlatformTag=72","","","","",""
"817810","817810",Hillcrest Ave & Yosemite Dr,38.002686,-121.787471,,"","http://rta.trideltatransit.com/RTT/Public/RoutePositionET.aspx?PlatformTag=466","","","","",""
"816410","816410",Inlet Dr & Marina Rd,38.036364,-121.969108,,"","http://rta.trideltatransit.com/RTT/Public/RoutePositionET.aspx?PlatformTag=511","","","","",""
"810171","810171",James Donlon Blvd & Blythe Dr,37.980346,-121.820887,,"","http://rta.trideltatransit.com/RTT/Public/RoutePositionET.aspx?PlatformTag=454","","","","",""
"815357","815357",James Donlon Blvd & Community Prk,37.980064,-121.819935,,"","http://rta.trideltatransit.com/RTT/Public/RoutePositionET.aspx?PlatformTag=383","","","","",""
"814271","814271",James Donlon Blvd & Contra Loma Blvd,37.98197,-121.824916,,"","http://rta.trideltatransit.com/RTT/Public/RoutePositionET.aspx?PlatformTag=382","","","","",""
"815479","815479",James Donlon Blvd & Contra Loma Blvd,37.982792,-121.826061,,"","http://rta.trideltatransit.com/RTT/Public/RoutePositionET.aspx?PlatformTag=319","","","","",""
"815374","815374",James Donlon Blvd & Dimaggio Wy,37.983256,-121.831473,,"","http://rta.trideltatransit.com/RTT/Public/RoutePositionET.aspx?PlatformTag=317","","","","",""
"815507","815507",James Donlon Blvd & Gentrytown Dr,37.983053,-121.835207,,"","http://rta.trideltatransit.com/RTT/Public/RoutePositionET.aspx?PlatformTag=316","","","","",""
"810163","810163",James Donlon Blvd & G St,37.980161,-121.81511,,"","http://rta.trideltatransit.com/RTT/Public/RoutePositionET.aspx?PlatformTag=453","","","","",""
"815361","815361",James Donlon Blvd & G St,37.979764,-121.81404,,"","http://rta.trideltatransit.com/RTT/Public/RoutePositionET.aspx?PlatformTag=384","","","","",""
"815511","815511",James Donlon Blvd & Silverado Dr,37.983021,-121.83062,,"","http://rta.trideltatransit.com/RTT/Public/RoutePositionET.aspx?PlatformTag=318","","","","",""
"810159","810159",James Donlon Blvd & Sth Royal Links Cir,37.97988,-121.810243,,"","http://rta.trideltatransit.com/RTT/Public/RoutePositionET.aspx?PlatformTag=452","","","","",""
"815342","815342",James Donlon Blvd & Sth Royal Links Cir,37.979807,-121.80948,,"","http://rta.trideltatransit.com/RTT/Public/RoutePositionET.aspx?PlatformTag=385","","","","",""
"811252","811252",John Muir Hospital,37.924308,-121.736686,,"","http://rta.trideltatransit.com/RTT/Public/RoutePositionET.aspx?PlatformTag=674","","","","",""
"815168","815168",Kevin Dr & Harvey Wy,38.031626,-121.958174,,"","http://rta.trideltatransit.com/RTT/Public/RoutePositionET.aspx?PlatformTag=520","","","","",""
"817230","817230",Kevin Dr & Harvey Wy,38.031731,-121.958576,,"","http://rta.trideltatransit.com/RTT/Public/RoutePositionET.aspx?PlatformTag=519","","","","",""
"818392","818392",Kevin Dr & Kim St,38.031591,-121.955462,,"","http://rta.trideltatransit.com/RTT/Public/RoutePositionET.aspx?PlatformTag=522","","","","",""
"815272","815272",Kevin Dr & Oram Wy,38.028135,-121.954448,,"","http://rta.trideltatransit.com/RTT/Public/RoutePositionET.aspx?PlatformTag=525","","","","",""
"816225","816225",Kevin Dr & Pamela Dr,38.029788,-121.953665,,"","http://rta.trideltatransit.com/RTT/Public/RoutePositionET.aspx?PlatformTag=524","","","","",""
"816218","816218",Kevin Dr & Pamela Dr,38.030288,-121.953851,,"","http://rta.trideltatransit.com/RTT/Public/RoutePositionET.aspx?PlatformTag=523","","","","",""
"816202","816202",Kevin Dr & Shellie Ct,38.031762,-121.955496,,"","http://rta.trideltatransit.com/RTT/Public/RoutePositionET.aspx?PlatformTag=521","","","","",""
"816239","816239",Kevin Dr & Willow Pass Rd,38.027473,-121.954582,,"","http://rta.trideltatransit.com/RTT/Public/RoutePositionET.aspx?PlatformTag=526","","","","",""
"811642","811642",Laurel Rd & Canada Hills Dr,37.972022,-121.758658,,"","http://rta.trideltatransit.com/RTT/Public/RoutePositionET.aspx?PlatformTag=242","","","","",""
"811516","811516",Laurel Rd & Canada Hills Wy,37.972322,-121.758858,,"","http://rta.trideltatransit.com/RTT/Public/RoutePositionET.aspx?PlatformTag=243","","","","",""
"811500","811500",Laurel Rd & Hillcrest Ave,37.970829,-121.760475,,"","http://rta.trideltatransit.com/RTT/Public/RoutePositionET.aspx?PlatformTag=240","","","","",""
"811657","811657",Laurel Rd & Hillcrest Ave,37.970812,-121.76004,,"","http://rta.trideltatransit.com/RTT/Public/RoutePositionET.aspx?PlatformTag=241","","","","",""
"811635","811635",Laurel Rd & Kushner Wy,37.974831,-121.757554,,"","http://rta.trideltatransit.com/RTT/Public/RoutePositionET.aspx?PlatformTag=250","","","","",""
"811528","811528",Laurel Rd & Kushner Wy,37.974863,-121.75792,,"","http://rta.trideltatransit.com/RTT/Public/RoutePositionET.aspx?PlatformTag=251","","","","",""
"818337","818337",Laurel Rd & Rose Ave,37.983461,-121.706062,,"","http://rta.trideltatransit.com/RTT/Public/RoutePositionET.aspx?PlatformTag=760","","","","",""
"818344","818344",Laurel Rd & Rose Ave,37.983202,-121.704364,,"","http://rta.trideltatransit.com/RTT/Public/RoutePositionET.aspx?PlatformTag=759","","","","",""
"819854","819854",LMC Brentwood Center,37.895701,-121.72139,,"","http://rta.trideltatransit.com/RTT/Public/RoutePositionET.aspx?PlatformTag=745","","","","",""
"817118","817118",Lone Tree Way & Gann St,37.961442,-121.718421,,"","http://rta.trideltatransit.com/RTT/Public/RoutePositionET.aspx?PlatformTag=739","","","","",""
"817139","817139",Lone Tree Way & Medallion Dr,37.96174,-121.71899,,"","http://rta.trideltatransit.com/RTT/Public/RoutePositionET.aspx?PlatformTag=738","","","","",""
"811776","811776",Lone Tree Wy & Black Diamond Dr,37.969311,-121.79004,,"","http://rta.trideltatransit.com/RTT/Public/RoutePositionET.aspx?PlatformTag=229","","","","",""
"813525","813525",Lone Tree Wy & Bluerock Dr,37.977616,-121.802896,,"","http://rta.trideltatransit.com/RTT/Public/RoutePositionET.aspx?PlatformTag=61","","","","",""
"817501","817501",Lone Tree Wy & Canada Valley Rd,37.96186,-121.748546,,"","http://rta.trideltatransit.com/RTT/Public/RoutePositionET.aspx?PlatformTag=10","","","","",""
"813797","813797",Lone Tree Wy & Canada Valley Rd,37.961497,-121.748934,,"","http://rta.trideltatransit.com/RTT/Public/RoutePositionET.aspx?PlatformTag=57","","","","",""
"811805","811805",Lone Tree Wy & Clayburn Rd,37.98304,-121.805847,,"","http://rta.trideltatransit.com/RTT/Public/RoutePositionET.aspx?PlatformTag=226","","","","",""
"813491","813491",Lone Tree Wy & Clearbrook Rd,37.987631,-121.806733,,"","http://rta.trideltatransit.com/RTT/Public/RoutePositionET.aspx?PlatformTag=63","","","","",""
"811822","811822",Lone Tree Wy & Clearbrook Rd,37.98703,-121.806644,,"","http://rta.trideltatransit.com/RTT/Public/RoutePositionET.aspx?PlatformTag=224","","","","",""
"813556","813556",Lone Tree Wy & Country Hills Dr,37.968447,-121.786546,,"","http://rta.trideltatransit.com/RTT/Public/RoutePositionET.aspx?PlatformTag=91","","","","",""
"811782","811782",Lone Tree Wy & Dallas Ranch Rd,37.970867,-121.795192,,"","http://rta.trideltatransit.com/RTT/Public/RoutePositionET.aspx?PlatformTag=228","","","","",""
"811814","811814",Lone Tree Wy & Davison Dr,37.9846,-121.80598,,"","http://rta.trideltatransit.com/RTT/Public/RoutePositionET.aspx?PlatformTag=225","","","","",""
"817282","817282",Lone Tree Wy & Deer Valley High,37.964068,-121.774086,,"","http://rta.trideltatransit.com/RTT/Public/RoutePositionET.aspx?PlatformTag=53","","","","",""
"811769","811769",Lone Tree Wy & Deer Valley Plz,37.967342,-121.784422,,"","http://rta.trideltatransit.com/RTT/Public/RoutePositionET.aspx?PlatformTag=230","","","","",""
"813560","813560",Lone Tree Wy & Deer Valley Rd,37.966339,-121.781001,,"","http://rta.trideltatransit.com/RTT/Public/RoutePositionET.aspx?PlatformTag=96","","","","",""
"817295","817295",Lone Tree Wy & Deer Valley Rd,37.965423,-121.77952,,"","http://rta.trideltatransit.com/RTT/Public/RoutePositionET.aspx?PlatformTag=51","","","","",""
"813539","813539",Lone Tree Wy & Eagleridge Dr,37.971399,-121.795931,,"","http://rta.trideltatransit.com/RTT/Public/RoutePositionET.aspx?PlatformTag=90","","","","",""
"813462","813462",Lone Tree Wy & East Tregallas Rd,37.995819,-121.806537,,"","http://rta.trideltatransit.com/RTT/Public/RoutePositionET.aspx?PlatformTag=67","","","","",""
"818787","818787",Lone Tree Wy & Empire Ave,37.961776,-121.733348,,"","http://rta.trideltatransit.com/RTT/Public/RoutePositionET.aspx?PlatformTag=7","","","","",""
"813778","813778",Lone Tree Wy & Empire Ave,37.961448,-121.731749,,"","http://rta.trideltatransit.com/RTT/Public/RoutePositionET.aspx?PlatformTag=59","","","","",""
"813766","813766",Lone Tree Wy & Giannini Rnch,37.961474,-121.729846,,"","http://rta.trideltatransit.com/RTT/Public/RoutePositionET.aspx?PlatformTag=60","","","","",""
"817540","817540",Lone Tree Wy & Giannini Rnch,37.961801,-121.729459,,"","http://rta.trideltatransit.com/RTT/Public/RoutePositionET.aspx?PlatformTag=6","","","","",""
"811795","811795",Lone Tree Wy & Golf Course Rd,37.976459,-121.802077,,"","http://rta.trideltatransit.com/RTT/Public/RoutePositionET.aspx?PlatformTag=227","","","","",""
"813811","813811",Lone Tree Wy & Hillcrest Ave,37.96158,-121.758896,,"","http://rta.trideltatransit.com/RTT/Public/RoutePositionET.aspx?PlatformTag=55","","","","",""
"817488","817488",Lone Tree Wy & Hillcrest Ave,37.961863,-121.761474,,"","http://rta.trideltatransit.com/RTT/Public/RoutePositionET.aspx?PlatformTag=12","","","","",""
"817517","817517",Lone Tree Wy & Hwy 4,37.961827,-121.745516,,"","http://rta.trideltatransit.com/RTT/Public/RoutePositionET.aspx?PlatformTag=9","","","","",""
"813824","813824",Lone Tree Wy & Indian Hill Dr,37.961712,-121.764053,,"","http://rta.trideltatransit.com/RTT/Public/RoutePositionET.aspx?PlatformTag=54","","","","",""
"813541","813541",Lone Tree Wy & Muirwood Wy,37.970022,-121.791272,,"","http://rta.trideltatransit.com/RTT/Public/RoutePositionET.aspx?PlatformTag=92","","","","",""
"817474","817474",Lone Tree Wy & Prewett Prk,37.964789,-121.775868,,"","http://rta.trideltatransit.com/RTT/Public/RoutePositionET.aspx?PlatformTag=13","","","","",""
"811846","811846",Lone Tree Wy & Robert St,37.992027,-121.807895,,"","http://rta.trideltatransit.com/RTT/Public/RoutePositionET.aspx?PlatformTag=222","","","","",""
"813830","813830",Lone Tree Wy & Sagebrush Dr,37.963572,-121.771898,,"","http://rta.trideltatransit.com/RTT/Public/RoutePositionET.aspx?PlatformTag=52","","","","",""
"813784","813784",Lone Tree Wy & Shady Willow Ln,37.96145,-121.737252,,"","http://rta.trideltatransit.com/RTT/Public/RoutePositionET.aspx?PlatformTag=58","","","","",""
"817529","817529",Lone Tree Wy & Slatten Ranch Rd,37.96181,-121.737865,,"","http://rta.trideltatransit.com/RTT/Public/RoutePositionET.aspx?PlatformTag=8","","","","",""
"813502","813502",Lone Tree Wy & Sunset Ln,37.985489,-121.805757,,"","http://rta.trideltatransit.com/RTT/Public/RoutePositionET.aspx?PlatformTag=64","","","","",""
"813518","813518",Lone Tree Wy & Sutter Delta,37.982628,-121.805496,,"","http://rta.trideltatransit.com/RTT/Public/RoutePositionET.aspx?PlatformTag=62","","","","",""
"811833","811833",Lone Tree Wy & Terranova Dr,37.989536,-121.807774,,"","http://rta.trideltatransit.com/RTT/Public/RoutePositionET.aspx?PlatformTag=223","","","","",""
"813807","813807",Lone Tree Wy & Vista Grande Dr,37.961587,-121.754435,,"","http://rta.trideltatransit.com/RTT/Public/RoutePositionET.aspx?PlatformTag=56","","","","",""
"817490","817490",Lone Tree Wy & Vista Grande Dr,37.961874,-121.755946,,"","http://rta.trideltatransit.com/RTT/Public/RoutePositionET.aspx?PlatformTag=11","","","","",""
"813489","813489",Lone Tree Wy & Walton Ln,37.991451,-121.807558,,"","http://rta.trideltatransit.com/RTT/Public/RoutePositionET.aspx?PlatformTag=65","","","","",""
"811851","811851",Lone Tree Wy & West Tregallas Rd,37.99524,-121.807668,,"","http://rta.trideltatransit.com/RTT/Public/RoutePositionET.aspx?PlatformTag=221","","","","",""
"813470","813470",Lone Tree Wy & Worrell Rd,37.994044,-121.807697,,"","http://rta.trideltatransit.com/RTT/Public/RoutePositionET.aspx?PlatformTag=66","","","","",""
"812892","812892",Loveridge Rd & California Ave,38.012635,-121.864151,,"","http://rta.trideltatransit.com/RTT/Public/RoutePositionET.aspx?PlatformTag=141","","","","",""
"819400","819400",Loveridge Rd & Deanza Trail,38.005272,-121.872151,,"","http://rta.trideltatransit.com/RTT/Public/RoutePositionET.aspx?PlatformTag=725","","","","",""
"814069","814069",Loveridge Rd & Delta Deanza Trail,38.005277,-121.871854,,"","http://rta.trideltatransit.com/RTT/Public/RoutePositionET.aspx?PlatformTag=726","","","","",""
"817997","817997",Loveridge Rd & East Leland Rd,38.009319,-121.870304,,"","http://rta.trideltatransit.com/RTT/Public/RoutePositionET.aspx?PlatformTag=143","","","","",""
"812121","812121",Loveridge Rd & Hwy 4,38.011007,-121.869082,,"","http://rta.trideltatransit.com/RTT/Public/RoutePositionET.aspx?PlatformTag=195","","","","",""
"812902","812902",Loveridge Rd & Hwy 4,38.011095,-121.868197,,"","http://rta.trideltatransit.com/RTT/Public/RoutePositionET.aspx?PlatformTag=142","","","","",""
"814421","814421",Loveridge Rd & Loveridge Cir,38.007573,-121.871291,,"","http://rta.trideltatransit.com/RTT/Public/RoutePositionET.aspx?PlatformTag=368","","","","",""
"814817","814817",Loveridge Rd & Stoneman Ave,38.003042,-121.873006,,"","http://rta.trideltatransit.com/RTT/Public/RoutePositionET.aspx?PlatformTag=369","","","","",""
"810308","810308",Loveridge Rd & Stoneman Ave,38.003073,-121.872716,,"","http://rta.trideltatransit.com/RTT/Public/RoutePositionET.aspx?PlatformTag=339","","","","",""
"814829","814829",Loveridge Rd & Ventura Dr,38.000318,-121.874049,,"","http://rta.trideltatransit.com/RTT/Public/RoutePositionET.aspx?PlatformTag=370","","","","",""
"810298","810298",Loveridge Rd & Ventura Dr,38.000402,-121.873729,,"","http://rta.trideltatransit.com/RTT/Public/RoutePositionET.aspx?PlatformTag=340","","","","",""
"819348","819348",L St & Claudia Ct,38.000299,-121.821285,,"","http://rta.trideltatransit.com/RTT/Public/RoutePositionET.aspx?PlatformTag=304","","","","",""
"817211","817211",L St & Claudia Ct,38.000014,-121.821126,,"","http://rta.trideltatransit.com/RTT/Public/RoutePositionET.aspx?PlatformTag=305","","","","",""
"811983","811983",L St & West 18th St,38.005945,-121.819629,,"","http://rta.trideltatransit.com/RTT/Public/RoutePositionET.aspx?PlatformTag=209","","","","",""
"813055","813055",L St & West 18th St,38.005036,-121.819938,,"","http://rta.trideltatransit.com/RTT/Public/RoutePositionET.aspx?PlatformTag=155","","","","",""
"815728","815728",L St & West 2nd St,38.016673,-121.819626,,"","http://rta.trideltatransit.com/RTT/Public/RoutePositionET.aspx?PlatformTag=292","","","","",""
"815716","815716",L St & West 3rd St,38.016433,-121.81985,,"","http://rta.trideltatransit.com/RTT/Public/RoutePositionET.aspx?PlatformTag=291","","","","",""
"811954","811954",L St & West 5th St,38.015018,-121.819615,,"","http://rta.trideltatransit.com/RTT/Public/RoutePositionET.aspx?PlatformTag=211","","","","",""
"813072","813072",L St & West 5th St,38.01511,-121.819894,,"","http://rta.trideltatransit.com/RTT/Public/RoutePositionET.aspx?PlatformTag=157","","","","",""
"811965","811965",L St & West 9th St,38.011809,-121.819615,,"","http://rta.trideltatransit.com/RTT/Public/RoutePositionET.aspx?PlatformTag=210","","","","",""
"813064","813064",L St & West 9th St,38.011654,-121.819898,,"","http://rta.trideltatransit.com/RTT/Public/RoutePositionET.aspx?PlatformTag=156","","","","",""
"811996","811996",L St & William Reed Dr,38.004339,-121.819901,,"","http://rta.trideltatransit.com/RTT/Public/RoutePositionET.aspx?PlatformTag=208","","","","",""
"818756","818756",Main St & Big Break Rd,38.003643,-121.732676,,"","http://rta.trideltatransit.com/RTT/Public/RoutePositionET.aspx?PlatformTag=640","","","","",""
"817950","817950",Main St & Big Break Rd,38.00483,-121.733495,,"","http://rta.trideltatransit.com/RTT/Public/RoutePositionET.aspx?PlatformTag=79","","","","",""
"818929","818929",Main St & Bolton East Rd,37.973856,-121.695895,,"","http://rta.trideltatransit.com/RTT/Public/RoutePositionET.aspx?PlatformTag=434","","","","",""
"810639","810639",Main St & Charles Wy,37.998737,-121.73149,,"","http://rta.trideltatransit.com/RTT/Public/RoutePositionET.aspx?PlatformTag=446","","","","",""
"810706","810706",Main St & Delta Rd,37.96877,-121.695966,,"","http://rta.trideltatransit.com/RTT/Public/RoutePositionET.aspx?PlatformTag=431","","","","",""
"819025","819025",Main St & East 18th St,38.005222,-121.752237,,"","http://rta.trideltatransit.com/RTT/Public/RoutePositionET.aspx?PlatformTag=78","","","","",""
"813644","813644",Main St & Empire Ave,37.997839,-121.730492,,"","http://rta.trideltatransit.com/RTT/Public/RoutePositionET.aspx?PlatformTag=33","","","","",""
"811058","811058",Main St & Genesco St,37.999947,-121.732442,,"","http://rta.trideltatransit.com/RTT/Public/RoutePositionET.aspx?PlatformTag=445","","","","",""
"811004","811004",Main St & Laurel Rd,37.983026,-121.696048,,"","http://rta.trideltatransit.com/RTT/Public/RoutePositionET.aspx?PlatformTag=436","","","","",""
"810687","810687",Main St & Laurel Rd,37.983203,-121.695744,,"","http://rta.trideltatransit.com/RTT/Public/RoutePositionET.aspx?PlatformTag=435","","","","",""
"817731","817731",Main St & Live Oak Ave,38.005058,-121.741049,,"","http://rta.trideltatransit.com/RTT/Public/RoutePositionET.aspx?PlatformTag=473","","","","",""
"817749","817749",Main St & Neroly Rd,38.004962,-121.750389,,"","http://rta.trideltatransit.com/RTT/Public/RoutePositionET.aspx?PlatformTag=472","","","","",""
"810982","810982",Main St & Neroly Rd,37.968972,-121.696205,,"","http://rta.trideltatransit.com/RTT/Public/RoutePositionET.aspx?PlatformTag=432","","","","",""
"811043","811043",Main St & Norcross Ln,37.997716,-121.716376,,"","http://rta.trideltatransit.com/RTT/Public/RoutePositionET.aspx?PlatformTag=443","","","","",""
"810641","810641",Main St & Norcross Ln,37.997947,-121.716936,,"","http://rta.trideltatransit.com/RTT/Public/RoutePositionET.aspx?PlatformTag=444","","","","",""
"813628","813628",Main St & Teakwood Dr,37.997942,-121.726598,,"","http://rta.trideltatransit.com/RTT/Public/RoutePositionET.aspx?PlatformTag=34","","","","",""
"813637","813637",Main St & Teakwood Dr,37.997717,-121.725735,,"","http://rta.trideltatransit.com/RTT/Public/RoutePositionET.aspx?PlatformTag=35","","","","",""
"810995","810995",Main St & West Bolton Rd,37.973361,-121.696103,,"","http://rta.trideltatransit.com/RTT/Public/RoutePositionET.aspx?PlatformTag=433","","","","",""
"816565","816565",Marina Blvd & East 3rd St,38.03422,-121.884078,,"","http://rta.trideltatransit.com/RTT/Public/RoutePositionET.aspx?PlatformTag=555","","","","",""
"816605","816605",Marina Blvd & Pelican Loop,38.034511,-121.884188,,"","http://rta.trideltatransit.com/RTT/Public/RoutePositionET.aspx?PlatformTag=554","","","","",""
"816358","816358",Mariners Cove Dr & Pacifica Ave,38.033498,-121.972628,,"","http://rta.trideltatransit.com/RTT/Public/RoutePositionET.aspx?PlatformTag=507","","","","",""
"816343","816343",Mota Dr & Azores Cir,38.02856,-121.973148,,"","http://rta.trideltatransit.com/RTT/Public/RoutePositionET.aspx?PlatformTag=501","","","","",""
"816336","816336",Mota Dr & Rio Ln,38.02768,-121.97429,,"","http://rta.trideltatransit.com/RTT/Public/RoutePositionET.aspx?PlatformTag=500","","","","",""
"813998","813998",Muir Rd & Roman Wy,37.994576,-122.10983,,"","http://rta.trideltatransit.com/RTT/Public/RoutePositionET.aspx?PlatformTag=565","","","","",""
"819213","819213",Muir Rd & Roman Wy,37.994693,-122.110006,,"","http://rta.trideltatransit.com/RTT/Public/RoutePositionET.aspx?PlatformTag=564","","","","",""
"814568","814568",Muir Rd & Veterans Dr,37.994118,-122.114444,,"","http://rta.trideltatransit.com/RTT/Public/RoutePositionET.aspx?PlatformTag=563","","","","",""
"810656","810656",Ohara Ave & Acme St,37.996982,-121.713893,,"","http://rta.trideltatransit.com/RTT/Public/RoutePositionET.aspx?PlatformTag=442","","","","",""
"811036","811036",Ohara Ave & Acme St,37.996836,-121.714033,,"","http://rta.trideltatransit.com/RTT/Public/RoutePositionET.aspx?PlatformTag=441","","","","",""
"817555","817555",Ohara Ave & Atherton Blvd,37.966732,-121.714266,,"","http://rta.trideltatransit.com/RTT/Public/RoutePositionET.aspx?PlatformTag=5","","","","",""
"813750","813750",Ohara Ave & Atherton Blvd,37.967839,-121.713914,,"","http://rta.trideltatransit.com/RTT/Public/RoutePositionET.aspx?PlatformTag=609","","","","",""
"810660","810660",Ohara Ave & East Home St,37.995132,-121.713903,,"","http://rta.trideltatransit.com/RTT/Public/RoutePositionET.aspx?PlatformTag=440","","","","",""
"819104","819104",Ohara Ave & Francisco Villa Dr,37.991522,-121.714133,,"","http://rta.trideltatransit.com/RTT/Public/RoutePositionET.aspx?PlatformTag=437","","","","",""
"817141","817141",Ohara Ave & Grant St,37.954182,-121.71398,,"","http://rta.trideltatransit.com/RTT/Public/RoutePositionET.aspx?PlatformTag=742","","","","",""
"810673","810673",Ohara Ave & Las Dunas Ave,37.992577,-121.71388,,"","http://rta.trideltatransit.com/RTT/Public/RoutePositionET.aspx?PlatformTag=438","","","","",""
"811027","811027",Ohara Ave & West Home St,37.994505,-121.714045,,"","http://rta.trideltatransit.com/RTT/Public/RoutePositionET.aspx?PlatformTag=439","","","","",""
"815123","815123",Pacifica Ave & Breaker Dr,38.033961,-121.965717,,"","http://rta.trideltatransit.com/RTT/Public/RoutePositionET.aspx?PlatformTag=513","","","","",""
"815134","815134",Pacifica Ave & Canal Dr,38.034087,-121.966032,,"","http://rta.trideltatransit.com/RTT/Public/RoutePositionET.aspx?PlatformTag=512","","","","",""
"815016","815016",Pacifica Ave & Harbor Dr,38.033969,-121.968545,,"","http://rta.trideltatransit.com/RTT/Public/RoutePositionET.aspx?PlatformTag=716","","","","",""
"815110","815110",Pacifica Ave & Inlet Dr,38.034098,-121.968898,,"","http://rta.trideltatransit.com/RTT/Public/RoutePositionET.aspx?PlatformTag=509","","","","",""
"817945","817945",Pacifica Ave & Port Chicago Hwy,38.034078,-121.961092,,"","http://rta.trideltatransit.com/RTT/Public/RoutePositionET.aspx?PlatformTag=517","","","","",""
"815096","815096",Pacifica Ave & Shoal Dr,38.033933,-121.974424,,"","http://rta.trideltatransit.com/RTT/Public/RoutePositionET.aspx?PlatformTag=506","","","","",""
"819162","819162",Pacifica Ave & Wharf Dr,38.034024,-121.976233,,"","http://rta.trideltatransit.com/RTT/Public/RoutePositionET.aspx?PlatformTag=715","","","","",""
"812132","812132",Pittsburg Antioch Hwy & Loveridge Rd,38.015176,-121.860563,,"","http://rta.trideltatransit.com/RTT/Public/RoutePositionET.aspx?PlatformTag=194","","","","",""
"812885","812885",Pittsburg Antioch Hwy & Loveridge Rd,38.015361,-121.860508,,"","http://rta.trideltatransit.com/RTT/Public/RoutePositionET.aspx?PlatformTag=140","","","","",""
"818889","818889",Pittsburg/Bay Point BART,38.017592,-121.945317,,"","http://rta.trideltatransit.com/RTT/Public/RoutePositionET.aspx?PlatformTag=625","","","","",""
"816583","816583",Pittsburg Marina,38.038622,-121.885152,,"","http://rta.trideltatransit.com/RTT/Public/RoutePositionET.aspx?PlatformTag=607","","","","",""
"816531","816531",Polaris Dr & Balclutha Wy,38.022629,-121.921309,,"","http://rta.trideltatransit.com/RTT/Public/RoutePositionET.aspx?PlatformTag=541","","","","",""
"812291","812291",Polaris Dr & Brickyard Ave,38.023167,-121.911356,,"","http://rta.trideltatransit.com/RTT/Public/RoutePositionET.aspx?PlatformTag=178","","","","",""
"812598","812598",Polaris Dr & Brickyard Ave,38.023331,-121.910361,,"","http://rta.trideltatransit.com/RTT/Public/RoutePositionET.aspx?PlatformTag=111","","","","",""
"812580","812580",Polaris Dr & East Catamaran Cir,38.02332,-121.915079,,"","http://rta.trideltatransit.com/RTT/Public/RoutePositionET.aspx?PlatformTag=110","","","","",""
"812301","812301",Polaris Dr & East Catamaran Cir,38.023146,-121.915093,,"","http://rta.trideltatransit.com/RTT/Public/RoutePositionET.aspx?PlatformTag=177","","","","",""
"812579","812579",Polaris Dr & Range Rd,38.023346,-121.917617,,"","http://rta.trideltatransit.com/RTT/Public/RoutePositionET.aspx?PlatformTag=109","","","","",""
"812317","812317",Polaris Dr & Range Rd,38.023161,-121.917789,,"","http://rta.trideltatransit.com/RTT/Public/RoutePositionET.aspx?PlatformTag=176","","","","",""
"815147","815147",Port Chicago Hwy & Pacific Ave,38.033691,-121.960591,,"","http://rta.trideltatransit.com/RTT/Public/RoutePositionET.aspx?PlatformTag=518","","","","",""
"819278","819278",Power Ave & Andrew Ave,38.020107,-121.900204,,"","http://rta.trideltatransit.com/RTT/Public/RoutePositionET.aspx?PlatformTag=113","","","","",""
"812289","812289",Power Ave & Case Dr,38.022271,-121.90568,,"","http://rta.trideltatransit.com/RTT/Public/RoutePositionET.aspx?PlatformTag=179","","","","",""
"819143","819143",Power Ave & Jorgensen Dr,38.021849,-121.903963,,"","http://rta.trideltatransit.com/RTT/Public/RoutePositionET.aspx?PlatformTag=112","","","","",""
"812270","812270",Power Ave & Jorgensen Dr,38.021323,-121.903544,,"","http://rta.trideltatransit.com/RTT/Public/RoutePositionET.aspx?PlatformTag=180","","","","",""
"817932","817932",Prewett Prk & Lone Tree Wy,37.966011,-121.774433,,"","http://rta.trideltatransit.com/RTT/Public/RoutePositionET.aspx?PlatformTag=712","","","","",""
"810527","810527",Prewett Ranch Dr & Forty Niner Wy,37.957625,-121.779145,,"","http://rta.trideltatransit.com/RTT/Public/RoutePositionET.aspx?PlatformTag=681","","","","",""
"810396","810396",Prewett Ranch Dr & Forty Niner Wy,37.957507,-121.779437,,"","http://rta.trideltatransit.com/RTT/Public/RoutePositionET.aspx?PlatformTag=680","","","","",""
"810401","810401",Prewett Ranch Dr & Marigold Wy,37.959706,-121.786104,,"","http://rta.trideltatransit.com/RTT/Public/RoutePositionET.aspx?PlatformTag=682","","","","",""
"810515","810515",Prewett Ranch Dr & Marigold Wy,37.960071,-121.786348,,"","http://rta.trideltatransit.com/RTT/Public/RoutePositionET.aspx?PlatformTag=683","","","","",""
"810504","810504",Prewett Ranch Dr & Mokelumne Dr,37.96158,-121.789798,,"","http://rta.trideltatransit.com/RTT/Public/RoutePositionET.aspx?PlatformTag=685","","","","",""
"810417","810417",Prewett Ranch Dr & Mokelumne Dr,37.961386,-121.789995,,"","http://rta.trideltatransit.com/RTT/Public/RoutePositionET.aspx?PlatformTag=684","","","","",""
"810429","810429",Prewett Ranch Dr & Mt Conness Wy,37.959934,-121.795028,,"","http://rta.trideltatransit.com/RTT/Public/RoutePositionET.aspx?PlatformTag=686","","","","",""
"810493","810493",Prewett Ranch Dr & Mt Conness Wy,37.960114,-121.794772,,"","http://rta.trideltatransit.com/RTT/Public/RoutePositionET.aspx?PlatformTag=699","","","","",""
"812676","812676",Railroad Ave & Alvarado Ave,38.010761,-121.891634,,"","http://rta.trideltatransit.com/RTT/Public/RoutePositionET.aspx?PlatformTag=133","","","","",""
"812653","812653",Railroad Ave & Bliss Ave,38.015989,-121.889641,,"","http://rta.trideltatransit.com/RTT/Public/RoutePositionET.aspx?PlatformTag=125","","","","",""
"812790","812790",Railroad Ave & Bliss Ave,38.015251,-121.890245,,"","http://rta.trideltatransit.com/RTT/Public/RoutePositionET.aspx?PlatformTag=126","","","","",""
"812204","812204",Railroad Ave & Central Ave,38.025058,-121.886408,,"","http://rta.trideltatransit.com/RTT/Public/RoutePositionET.aspx?PlatformTag=191","","","","",""
"812816","812816",Railroad Ave & Central Ave,38.024973,-121.886744,,"","http://rta.trideltatransit.com/RTT/Public/RoutePositionET.aspx?PlatformTag=118","","","","",""
"812800","812800",Railroad Ave & East 17th St,38.021828,-121.887677,,"","http://rta.trideltatransit.com/RTT/Public/RoutePositionET.aspx?PlatformTag=117","","","","",""
"812669","812669",Railroad Ave & East Leland Rd,38.013312,-121.890655,,"","http://rta.trideltatransit.com/RTT/Public/RoutePositionET.aspx?PlatformTag=129","","","","",""
"817966","817966",Railroad Ave & Linscheid Dr,38.003088,-121.894495,,"","http://rta.trideltatransit.com/RTT/Public/RoutePositionET.aspx?PlatformTag=574","","","","",""
"819250","819250",Railroad Ave & Mariposa Dr,38.006202,-121.893301,,"","http://rta.trideltatransit.com/RTT/Public/RoutePositionET.aspx?PlatformTag=572","","","","",""
"817037","817037",Railroad Ave (NB) & Center Dr,38.018901,-121.888514,,"","http://rta.trideltatransit.com/RTT/Public/RoutePositionET.aspx?PlatformTag=733","","","","",""
"818964","818964",Railroad Ave (NB) & East 5th St,38.032051,-121.883643,,"","http://rta.trideltatransit.com/RTT/Public/RoutePositionET.aspx?PlatformTag=750","","","","",""
"817059","817059",Railroad Ave (NB) & East 8th St,38.029047,-121.884681,,"","http://rta.trideltatransit.com/RTT/Public/RoutePositionET.aspx?PlatformTag=749","","","","",""
"817984","817984",Railroad Ave & Pueblo Dr,37.999261,-121.896266,,"","http://rta.trideltatransit.com/RTT/Public/RoutePositionET.aspx?PlatformTag=577","","","","",""
"815759","815759",Railroad Ave & Redondo Dr,38.000052,-121.895688,,"","http://rta.trideltatransit.com/RTT/Public/RoutePositionET.aspx?PlatformTag=576","","","","",""
"817028","817028",Railroad Ave (SB) & Center Dr,38.018196,-121.889166,,"","http://rta.trideltatransit.com/RTT/Public/RoutePositionET.aspx?PlatformTag=744","","","","",""
"817044","817044",Railroad Ave (SB) & East 5th St,38.031913,-121.883734,,"","http://rta.trideltatransit.com/RTT/Public/RoutePositionET.aspx?PlatformTag=752","","","","",""
"817063","817063",Railroad Ave (SB) & East 8th St,38.029039,-121.884868,,"","http://rta.trideltatransit.com/RTT/Public/RoutePositionET.aspx?PlatformTag=751","","","","",""
"812215","812215",Railroad Ave & School St,38.021297,-121.887587,,"","http://rta.trideltatransit.com/RTT/Public/RoutePositionET.aspx?PlatformTag=186","","","","",""
"813905","813905",Railroad Ave & Sequoia Dr,38.001945,-121.895183,,"","http://rta.trideltatransit.com/RTT/Public/RoutePositionET.aspx?PlatformTag=575","","","","",""
"812788","812788",Railroad Ave & West Leland Rd,38.011707,-121.8916,,"","http://rta.trideltatransit.com/RTT/Public/RoutePositionET.aspx?PlatformTag=131","","","","",""
"813895","813895",Railroad Ave & Yosemite Dr,38.005689,-121.893743,,"","http://rta.trideltatransit.com/RTT/Public/RoutePositionET.aspx?PlatformTag=573","","","","",""
"813594","813594",Sand Creek Rd & Deer Valley Rd,37.94952,-121.775722,,"","http://rta.trideltatransit.com/RTT/Public/RoutePositionET.aspx?PlatformTag=101","","","","",""
"811345","811345",Sand Creek Rd & Fairview Ave,37.944184,-121.724279,,"","http://rta.trideltatransit.com/RTT/Public/RoutePositionET.aspx?PlatformTag=670","","","","",""
"811234","811234",Sand Creek Rd & Highland Wy,37.943455,-121.734403,,"","http://rta.trideltatransit.com/RTT/Public/RoutePositionET.aspx?PlatformTag=648","","","","",""
"811223","811223",Sand Creek Rd & Highland Wy,37.943496,-121.726435,,"","http://rta.trideltatransit.com/RTT/Public/RoutePositionET.aspx?PlatformTag=649","","","","",""
"811321","811321",Sand Creek Rd & Sand Creek Crossing,37.943737,-121.738289,,"","http://rta.trideltatransit.com/RTT/Public/RoutePositionET.aspx?PlatformTag=672","","","","",""
"811247","811247",Sand Creek Rd & Sand Creek Crossing,37.943405,-121.737116,,"","http://rta.trideltatransit.com/RTT/Public/RoutePositionET.aspx?PlatformTag=647","","","","",""
"811332","811332",Sand Creek Rd & Shady Willow Ln,37.943705,-121.732405,,"","http://rta.trideltatransit.com/RTT/Public/RoutePositionET.aspx?PlatformTag=671","","","","",""
"816481","816481",San Marco Blvd & West Leland Rd,38.020112,-121.965867,,"","http://rta.trideltatransit.com/RTT/Public/RoutePositionET.aspx?PlatformTag=534","","","","",""
"816835","816835",School St & Barrus Ave,38.019823,-121.87982,,"","http://rta.trideltatransit.com/RTT/Public/RoutePositionET.aspx?PlatformTag=481","","","","",""
"816826","816826",School St & Barrus Ave,38.020003,-121.879853,,"","http://rta.trideltatransit.com/RTT/Public/RoutePositionET.aspx?PlatformTag=482","","","","",""
"814244","814244",Shady Willow Ln & Las Montanas Ct,37.947613,-121.735486,,"","http://rta.trideltatransit.com/RTT/Public/RoutePositionET.aspx?PlatformTag=718","","","","",""
"819245","819245",Shady Willow Ln & Los Cielos Wy,37.947355,-121.735521,,"","http://rta.trideltatransit.com/RTT/Public/RoutePositionET.aspx?PlatformTag=719","","","","",""
"816406","816406",Shore Rd & Inlet Dr,38.038785,-121.969033,,"","http://rta.trideltatransit.com/RTT/Public/RoutePositionET.aspx?PlatformTag=514","","","","",""
"816391","816391",Shore Rd & Lakeview Dr,38.039113,-121.970866,,"","http://rta.trideltatransit.com/RTT/Public/RoutePositionET.aspx?PlatformTag=515","","","","",""
"813038","813038",Sycamore Dr & Banyan Wy,38.005077,-121.825446,,"","http://rta.trideltatransit.com/RTT/Public/RoutePositionET.aspx?PlatformTag=153","","","","",""
"812010","812010",Sycamore Dr & Banyan Wy,38.004881,-121.825108,,"","http://rta.trideltatransit.com/RTT/Public/RoutePositionET.aspx?PlatformTag=206","","","","",""
"813017","813017",Sycamore Dr & Canal,38.005733,-121.830889,,"","http://rta.trideltatransit.com/RTT/Public/RoutePositionET.aspx?PlatformTag=151","","","","",""
"812034","812034",Sycamore Dr & Canal,38.00557,-121.830745,,"","http://rta.trideltatransit.com/RTT/Public/RoutePositionET.aspx?PlatformTag=204","","","","",""
"812006","812006",Sycamore Dr & Lemontree Wy,38.004201,-121.821887,,"","http://rta.trideltatransit.com/RTT/Public/RoutePositionET.aspx?PlatformTag=207","","","","",""
"813040","813040",Sycamore Dr & Peppertree Wy,38.004223,-121.821432,,"","http://rta.trideltatransit.com/RTT/Public/RoutePositionET.aspx?PlatformTag=154","","","","",""
"812023","812023",Sycamore Dr & Spanos St,38.005291,-121.82758,,"","http://rta.trideltatransit.com/RTT/Public/RoutePositionET.aspx?PlatformTag=205","","","","",""
"813029","813029",Sycamore Dr & Spanos St,38.005404,-121.827796,,"","http://rta.trideltatransit.com/RTT/Public/RoutePositionET.aspx?PlatformTag=152","","","","",""
"815621","815621",Verne Roberts Cir & Costco,38.009384,-121.83595,,"","http://rta.trideltatransit.com/RTT/Public/RoutePositionET.aspx?PlatformTag=277","","","","",""
"819115","819115",Verne Roberts Cir & Costco Way,38.009936,-121.832891,,"","http://rta.trideltatransit.com/RTT/Public/RoutePositionET.aspx?PlatformTag=275","","","","",""
"815613","815613",Verne Roberts Cir & Crow Ct,38.01018,-121.839116,,"","http://rta.trideltatransit.com/RTT/Public/RoutePositionET.aspx?PlatformTag=278","","","","",""
"814919","814919",Verne Roberts Cir & Crow Ct,38.010333,-121.840487,,"","http://rta.trideltatransit.com/RTT/Public/RoutePositionET.aspx?PlatformTag=279","","","","",""
"815632","815632",Verne Roberts Cir (opp. Costco),38.00932,-121.835022,,"","http://rta.trideltatransit.com/RTT/Public/RoutePositionET.aspx?PlatformTag=276","","","","",""
"814903","814903",Verne Roberts Cir & West 10th St,38.011951,-121.841902,,"","http://rta.trideltatransit.com/RTT/Public/RoutePositionET.aspx?PlatformTag=284","","","","",""
"815609","815609",Verne Roberts Cir & West 10th St,38.011967,-121.841737,,"","http://rta.trideltatransit.com/RTT/Public/RoutePositionET.aspx?PlatformTag=285","","","","",""
"811418","811418",Walnut Blvd & Balfour Rd,37.92662,-121.696342,,"","http://rta.trideltatransit.com/RTT/Public/RoutePositionET.aspx?PlatformTag=659","","","","",""
"811439","811439",Walnut Blvd & Orchard Dr,37.92833,-121.695972,,"","http://rta.trideltatransit.com/RTT/Public/RoutePositionET.aspx?PlatformTag=658","","","","",""
"817269","817269",West 10th St & Auto Center Dr,38.012603,-121.829715,,"","http://rta.trideltatransit.com/RTT/Public/RoutePositionET.aspx?PlatformTag=288","","","","",""
"816633","816633",West 10th St & Beacon St,38.029525,-121.893844,,"","http://rta.trideltatransit.com/RTT/Public/RoutePositionET.aspx?PlatformTag=548","","","","",""
"810003","810003",West 10th St & Beacon St,38.02936,-121.893819,,"","http://rta.trideltatransit.com/RTT/Public/RoutePositionET.aspx?PlatformTag=549","","","","",""
"816717","816717",West 10th St & B St,38.011146,-121.807734,,"","http://rta.trideltatransit.com/RTT/Public/RoutePositionET.aspx?PlatformTag=391","","","","",""
"816698","816698",West 10th St & B St,38.01125,-121.807857,,"","http://rta.trideltatransit.com/RTT/Public/RoutePositionET.aspx?PlatformTag=390","","","","",""
"819039","819039",West 10th St & Enterprise Ct,38.029541,-121.897189,,"","http://rta.trideltatransit.com/RTT/Public/RoutePositionET.aspx?PlatformTag=547","","","","",""
"819127","819127",West 10th St & G St,38.011145,-121.813159,,"","http://rta.trideltatransit.com/RTT/Public/RoutePositionET.aspx?PlatformTag=389","","","","",""
"813600","813600",West 10th St & Verne Roberts Cir,38.012408,-121.830614,,"","http://rta.trideltatransit.com/RTT/Public/RoutePositionET.aspx?PlatformTag=287","","","","",""
"816045","816045",West 10th St & West St,38.029299,-121.890471,,"","http://rta.trideltatransit.com/RTT/Public/RoutePositionET.aspx?PlatformTag=550","","","","",""
"815569","815569",West 18th St & D St,38.004872,-121.810172,,"","http://rta.trideltatransit.com/RTT/Public/RoutePositionET.aspx?PlatformTag=269","","","","",""
"815553","815553",West 18th St & D St,38.005049,-121.810622,,"","http://rta.trideltatransit.com/RTT/Public/RoutePositionET.aspx?PlatformTag=270","","","","",""
"815582","815582",West 18th St & L St,38.005144,-121.818252,,"","http://rta.trideltatransit.com/RTT/Public/RoutePositionET.aspx?PlatformTag=272","","","","",""
"815576","815576",West 18th St & L St,38.005282,-121.818327,,"","http://rta.trideltatransit.com/RTT/Public/RoutePositionET.aspx?PlatformTag=271","","","","",""
"819574","819574",West 1st St & Waldie Plz,38.01768,-121.816492,,"","http://rta.trideltatransit.com/RTT/Public/RoutePositionET.aspx?PlatformTag=301","","","","",""
"819638","819638",West 2nd St & East St,38.01685,-121.810841,,"","http://rta.trideltatransit.com/RTT/Public/RoutePositionET.aspx?PlatformTag=298","","","","",""
"819640","819640",West 2nd St & E St,38.016959,-121.810919,,"","http://rta.trideltatransit.com/RTT/Public/RoutePositionET.aspx?PlatformTag=297","","","","",""
"815700","815700",West 2nd St & K St,38.016967,-121.818151,,"","http://rta.trideltatransit.com/RTT/Public/RoutePositionET.aspx?PlatformTag=293","","","","",""
"819617","819617",West 2nd St & Prospect Wy,38.016854,-121.8173,,"","http://rta.trideltatransit.com/RTT/Public/RoutePositionET.aspx?PlatformTag=294","","","","",""
"819629","819629",West 2nd St & Waldie Plz,38.016861,-121.81461,,"","http://rta.trideltatransit.com/RTT/Public/RoutePositionET.aspx?PlatformTag=296","","","","",""
"815697","815697",West 2nd St & Waldie Plz,38.016947,-121.814838,,"","http://rta.trideltatransit.com/RTT/Public/RoutePositionET.aspx?PlatformTag=295","","","","",""
"815684","815684",West 2nd St & West 3rd St,38.016467,-121.809116,,"","http://rta.trideltatransit.com/RTT/Public/RoutePositionET.aspx?PlatformTag=299","","","","",""
"813093","813093",West 4th St & H St,38.01554,-121.815392,,"","http://rta.trideltatransit.com/RTT/Public/RoutePositionET.aspx?PlatformTag=159","","","","",""
"819018","819018",West 4th St & I St,38.015424,-121.816013,,"","http://rta.trideltatransit.com/RTT/Public/RoutePositionET.aspx?PlatformTag=213","","","","",""
"811949","811949",West 4th St & J St,38.015427,-121.817763,,"","http://rta.trideltatransit.com/RTT/Public/RoutePositionET.aspx?PlatformTag=212","","","","",""
"813086","813086",West 4th St & J St,38.015539,-121.817777,,"","http://rta.trideltatransit.com/RTT/Public/RoutePositionET.aspx?PlatformTag=158","","","","",""
"815737","815737",West 4th St & O St,38.015434,-121.823621,,"","http://rta.trideltatransit.com/RTT/Public/RoutePositionET.aspx?PlatformTag=289","","","","",""
"815595","815595",West 4th St & O St,38.01562,-121.823263,,"","http://rta.trideltatransit.com/RTT/Public/RoutePositionET.aspx?PlatformTag=290","","","","",""
"811920","811920",West 6th St & A St,38.013985,-121.806376,,"","http://rta.trideltatransit.com/RTT/Public/RoutePositionET.aspx?PlatformTag=214","","","","",""
"813103","813103",West 6th St & B St,38.014106,-121.807409,,"","http://rta.trideltatransit.com/RTT/Public/RoutePositionET.aspx?PlatformTag=160","","","","",""
"817658","817658",West Cypress Rd & Alder Dr,37.990606,-121.725901,,"","http://rta.trideltatransit.com/RTT/Public/RoutePositionET.aspx?PlatformTag=19","","","","",""
"817604","817604",West Cypress Rd & Fall Ln,37.990529,-121.699459,,"","http://rta.trideltatransit.com/RTT/Public/RoutePositionET.aspx?PlatformTag=22","","","","",""
"813692","813692",West Cypress Rd & Lorenzetti Dr,37.990489,-121.722039,,"","http://rta.trideltatransit.com/RTT/Public/RoutePositionET.aspx?PlatformTag=25","","","","",""
"817662","817662",West Cypress Rd & Lorenzetti Dr,37.990606,-121.722126,,"","http://rta.trideltatransit.com/RTT/Public/RoutePositionET.aspx?PlatformTag=20","","","","",""
"813745","813745",West Cypress Rd & Mellowood Dr,37.99067,-121.69992,,"","http://rta.trideltatransit.com/RTT/Public/RoutePositionET.aspx?PlatformTag=31","","","","",""
"813713","813713",West Cypress Rd & Ohara Ave,37.990606,-121.713793,,"","http://rta.trideltatransit.com/RTT/Public/RoutePositionET.aspx?PlatformTag=28","","","","",""
"817636","817636",West Cypress Rd & Ohara Ave,37.990469,-121.713567,,"","http://rta.trideltatransit.com/RTT/Public/RoutePositionET.aspx?PlatformTag=17","","","","",""
"813721","813721",West Cypress Rd & Orchard Prk Dr,37.990624,-121.711095,,"","http://rta.trideltatransit.com/RTT/Public/RoutePositionET.aspx?PlatformTag=29","","","","",""
"817627","817627",West Cypress Rd & Orchard Prk Dr,37.9905,-121.711338,,"","http://rta.trideltatransit.com/RTT/Public/RoutePositionET.aspx?PlatformTag=21","","","","",""
"813709","813709",West Cypress Rd & Ponderosa Wy,37.990492,-121.726768,,"","http://rta.trideltatransit.com/RTT/Public/RoutePositionET.aspx?PlatformTag=24","","","","",""
"817615","817615",West Cypress Rd & Rose Ave,37.990535,-121.704637,,"","http://rta.trideltatransit.com/RTT/Public/RoutePositionET.aspx?PlatformTag=18","","","","",""
"813732","813732",West Cypress Rd & Rose Ave,37.990646,-121.704777,,"","http://rta.trideltatransit.com/RTT/Public/RoutePositionET.aspx?PlatformTag=30","","","","",""
"816273","816273",West Leland Rd & Alves Ranch Rd,38.017493,-121.954409,,"","http://rta.trideltatransit.com/RTT/Public/RoutePositionET.aspx?PlatformTag=570","","","","",""
"816287","816287",West Leland Rd & Alves Ranch Rd,38.018049,-121.955961,,"","http://rta.trideltatransit.com/RTT/Public/RoutePositionET.aspx?PlatformTag=569","","","","",""
"815199","815199",West Leland Rd & Betty Ln,38.013262,-121.895894,,"","http://rta.trideltatransit.com/RTT/Public/RoutePositionET.aspx?PlatformTag=362","","","","",""
"814497","814497",West Leland Rd & Burton Ave,38.015177,-121.900342,,"","http://rta.trideltatransit.com/RTT/Public/RoutePositionET.aspx?PlatformTag=332","","","","",""
"819395","819395",West Leland Rd & Burton Ave,38.014999,-121.900352,,"","http://rta.trideltatransit.com/RTT/Public/RoutePositionET.aspx?PlatformTag=361","","","","",""
"814791","814791",West Leland Rd & Chestnut Dr,38.015533,-121.93664,,"","http://rta.trideltatransit.com/RTT/Public/RoutePositionET.aspx?PlatformTag=325","","","","",""
"814743","814743",West Leland Rd & Chestnut Dr,38.015367,-121.936027,,"","http://rta.trideltatransit.com/RTT/Public/RoutePositionET.aspx?PlatformTag=354","","","","",""
"814484","814484",West Leland Rd & Crestview Dr,38.014027,-121.896683,,"","http://rta.trideltatransit.com/RTT/Public/RoutePositionET.aspx?PlatformTag=333","","","","",""
"814770","814770",West Leland Rd & Daffodil Dr,38.01468,-121.923945,,"","http://rta.trideltatransit.com/RTT/Public/RoutePositionET.aspx?PlatformTag=357","","","","",""
"814736","814736",West Leland Rd & Delta Vista Ln,38.015283,-121.939393,,"","http://rta.trideltatransit.com/RTT/Public/RoutePositionET.aspx?PlatformTag=353","","","","",""
"814506","814506",West Leland Rd & Dover Wy,38.016345,-121.905133,,"","http://rta.trideltatransit.com/RTT/Public/RoutePositionET.aspx?PlatformTag=331","","","","",""
"817847","817847",West Leland Rd & Dover Wy,38.016064,-121.90488,,"","http://rta.trideltatransit.com/RTT/Public/RoutePositionET.aspx?PlatformTag=360","","","","",""
"817253","817253",West Leland Rd & Golf Club Rd,38.014503,-121.91147,,"","http://rta.trideltatransit.com/RTT/Public/RoutePositionET.aspx?PlatformTag=359","","","","",""
"814608","814608",West Leland Rd & Jacqueline Dr,38.0156,-121.928571,,"","http://rta.trideltatransit.com/RTT/Public/RoutePositionET.aspx?PlatformTag=327","","","","",""
"814762","814762",West Leland Rd & Jacqueline Dr,38.01533,-121.927955,,"","http://rta.trideltatransit.com/RTT/Public/RoutePositionET.aspx?PlatformTag=356","","","","",""
"816667","816667",West Leland Rd & John Henry Johnson Pky,38.013912,-121.919929,,"","http://rta.trideltatransit.com/RTT/Public/RoutePositionET.aspx?PlatformTag=358","","","","",""
"814523","814523",West Leland Rd & John Henry Johnson Pky,38.013716,-121.918195,,"","http://rta.trideltatransit.com/RTT/Public/RoutePositionET.aspx?PlatformTag=329","","","","",""
"812483","812483",West Leland Rd & Oak Hills Dr,38.015432,-121.943492,,"","http://rta.trideltatransit.com/RTT/Public/RoutePositionET.aspx?PlatformTag=162","","","","",""
"814510","814510",West Leland Rd & Range Rd,38.014032,-121.912547,,"","http://rta.trideltatransit.com/RTT/Public/RoutePositionET.aspx?PlatformTag=330","","","","",""
"816260","816260",West Leland Rd & San Marco Blvd,38.019283,-121.965068,,"","http://rta.trideltatransit.com/RTT/Public/RoutePositionET.aspx?PlatformTag=568","","","","",""
"814727","814727",West Leland Rd & Sth Broadway Ave,38.015465,-121.940757,,"","http://rta.trideltatransit.com/RTT/Public/RoutePositionET.aspx?PlatformTag=324","","","","",""
"814758","814758",West Leland Rd & Sugartree Dr,38.015513,-121.932173,,"","http://rta.trideltatransit.com/RTT/Public/RoutePositionET.aspx?PlatformTag=355","","","","",""
"814612","814612",West Leland Rd & Sugartree Dr,38.01566,-121.932678,,"","http://rta.trideltatransit.com/RTT/Public/RoutePositionET.aspx?PlatformTag=326","","","","",""
"814534","814534",West Leland Rd & Sugartree Dr,38.015198,-121.92605,,"","http://rta.trideltatransit.com/RTT/Public/RoutePositionET.aspx?PlatformTag=328","","","","",""
"817978","817978",West Tregallas Rd & D St,37.997495,-121.808727,,"","http://rta.trideltatransit.com/RTT/Public/RoutePositionET.aspx?PlatformTag=322","","","","",""
"818718","818718",West Tregallas Rd & D St,37.997584,-121.810293,,"","http://rta.trideltatransit.com/RTT/Public/RoutePositionET.aspx?PlatformTag=323","","","","",""
"815530","815530",West Tregallas Rd & G St,37.997535,-121.81525,,"","http://rta.trideltatransit.com/RTT/Public/RoutePositionET.aspx?PlatformTag=321","","","","",""
"816370","816370",Wharf Dr & Marina Rd,38.036367,-121.976039,,"","http://rta.trideltatransit.com/RTT/Public/RoutePositionET.aspx?PlatformTag=510","","","","",""
"814292","814292",Wharf Dr & Shore Dr,38.039856,-121.975999,,"","http://rta.trideltatransit.com/RTT/Public/RoutePositionET.aspx?PlatformTag=516","","","","",""
"816050","816050",Wilbur Ave & Almond St,38.012152,-121.805231,,"","http://rta.trideltatransit.com/RTT/Public/RoutePositionET.aspx?PlatformTag=393","","","","",""
"816066","816066",Wilbur Ave & Almond St,38.012279,-121.805338,,"","http://rta.trideltatransit.com/RTT/Public/RoutePositionET.aspx?PlatformTag=392","","","","",""
"810019","810019",Wilbur Ave & Cavallo Rd,38.012362,-121.795246,,"","http://rta.trideltatransit.com/RTT/Public/RoutePositionET.aspx?PlatformTag=641","","","","",""
"810320","810320",Wilbur Ave & Cavallo Rd,38.012133,-121.796097,,"","http://rta.trideltatransit.com/RTT/Public/RoutePositionET.aspx?PlatformTag=642","","","","",""
"816084","816084",Wilbur Ave & Orchard Ln,38.012326,-121.802203,,"","http://rta.trideltatransit.com/RTT/Public/RoutePositionET.aspx?PlatformTag=394","","","","",""
"816078","816078",Wilbur Ave & Orchard Ln,38.012155,-121.801092,,"","http://rta.trideltatransit.com/RTT/Public/RoutePositionET.aspx?PlatformTag=395","","","","",""
"813265","813265",Wildflower Dr & Deer Valley Rd,37.986848,-121.784705,,"","http://rta.trideltatransit.com/RTT/Public/RoutePositionET.aspx?PlatformTag=85","","","","",""
"811674","811674",Wildflower Dr & Hillcrest Ave,37.98812,-121.782392,,"","http://rta.trideltatransit.com/RTT/Public/RoutePositionET.aspx?PlatformTag=252","","","","",""
"816423","816423",Willow Pass and Kevin Dr,38.026676,-121.954169,,"","http://rta.trideltatransit.com/RTT/Public/RoutePositionET.aspx?PlatformTag=528","","","","",""
"818424","818424",Willow Pass Rd & Alves,38.026874,-121.951565,,"","http://rta.trideltatransit.com/RTT/Public/RoutePositionET.aspx?PlatformTag=530","","","","",""
"816434","816434",Willow Pass Rd & Ambrose Ave,38.02668,-121.951871,,"","http://rta.trideltatransit.com/RTT/Public/RoutePositionET.aspx?PlatformTag=529","","","","",""
"812567","812567",Willow Pass Rd & Balclutha Wy,38.026826,-121.923242,,"","http://rta.trideltatransit.com/RTT/Public/RoutePositionET.aspx?PlatformTag=108","","","","",""
"812364","812364",Willow Pass Rd & Balclutha Wy,38.026675,-121.923713,,"","http://rta.trideltatransit.com/RTT/Public/RoutePositionET.aspx?PlatformTag=175","","","","",""
"812408","812408",Willow Pass Rd & Bella Vista Ave,38.026678,-121.934048,,"","http://rta.trideltatransit.com/RTT/Public/RoutePositionET.aspx?PlatformTag=172","","","","",""
"816447","816447",Willow Pass Rd & Clearland Dr,38.026675,-121.945806,,"","http://rta.trideltatransit.com/RTT/Public/RoutePositionET.aspx?PlatformTag=532","","","","",""
"816452","816452",Willow Pass Rd & Clearland Dr,38.026849,-121.94658,,"","http://rta.trideltatransit.com/RTT/Public/RoutePositionET.aspx?PlatformTag=531","","","","",""
"812546","812546",Willow Pass Rd & Crivello Ave,38.026858,-121.933621,,"","http://rta.trideltatransit.com/RTT/Public/RoutePositionET.aspx?PlatformTag=106","","","","",""
"816013","816013",Willow Pass Rd & Enterprise Cir,38.029372,-121.898048,,"","http://rta.trideltatransit.com/RTT/Public/RoutePositionET.aspx?PlatformTag=546","","","","",""
"815008","815008",Willow Pass Rd & Evora Rd,38.01477,-121.998545,,"","http://rta.trideltatransit.com/RTT/Public/RoutePositionET.aspx?PlatformTag=494","","","","",""
"815012","815012",Willow Pass Rd & Evora Rd,38.014513,-121.998609,,"","http://rta.trideltatransit.com/RTT/Public/RoutePositionET.aspx?PlatformTag=493","","","","",""
"816256","816256",Willow Pass Rd & Goble Dr,38.025414,-121.962089,,"","http://rta.trideltatransit.com/RTT/Public/RoutePositionET.aspx?PlatformTag=536","","","","",""
"819820","819820",Willow Pass Rd & Kevin Dr,38.026804,-121.954288,,"","http://rta.trideltatransit.com/RTT/Public/RoutePositionET.aspx?PlatformTag=606","","","","",""
"812372","812372",Willow Pass Rd & Loftus Rd,38.026674,-121.927778,,"","http://rta.trideltatransit.com/RTT/Public/RoutePositionET.aspx?PlatformTag=174","","","","",""
"812533","812533",Willow Pass Rd & Madison Ave,38.026849,-121.936898,,"","http://rta.trideltatransit.com/RTT/Public/RoutePositionET.aspx?PlatformTag=171","","","","",""
"819369","819369",Willow Pass Rd & Nantucket Dr,38.029428,-121.91056,,"","http://rta.trideltatransit.com/RTT/Public/RoutePositionET.aspx?PlatformTag=545","","","","",""
"816021","816021",Willow Pass Rd & Nantucket Dr,38.029577,-121.913039,,"","http://rta.trideltatransit.com/RTT/Public/RoutePositionET.aspx?PlatformTag=544","","","","",""
"812522","812522",Willow Pass Rd & Nth Broadway Ave,38.02686,-121.940606,,"","http://rta.trideltatransit.com/RTT/Public/RoutePositionET.aspx?PlatformTag=169","","","","",""
"812412","812412",Willow Pass Rd & Poinsettia Ave,38.026676,-121.938908,,"","http://rta.trideltatransit.com/RTT/Public/RoutePositionET.aspx?PlatformTag=170","","","","",""
"812551","812551",Willow Pass Rd & Seasons Dr,38.026891,-121.928779,,"","http://rta.trideltatransit.com/RTT/Public/RoutePositionET.aspx?PlatformTag=107","","","","",""
"816241","816241",Willow Pass Rd & Weldon Ln,38.026873,-121.957889,,"","http://rta.trideltatransit.com/RTT/Public/RoutePositionET.aspx?PlatformTag=533","","","","",""
"812386","812386",Willow Pass Rd & Winter Wy,38.026709,-121.930857,,"","http://rta.trideltatransit.com/RTT/Public/RoutePositionET.aspx?PlatformTag=173","","","","",""